{"type":"FeatureCollection","crs":{"type":"name","properties":{"name":"EPSG:4326"}},"features":[{"type":"Feature","id":1,"geometry":{"type":"Point","coordinates":[29.319400074,-1.62218741199996,0]},"properties":{"OBJECTID":1,"province":"Western Province","district":"Rubavu","sector":"Cyanzarwe","sector_id":"3303","label":"Cyanzarwe Sector HQ","longitude":29.319400074000043,"latitude":-1.6221874119999597}},{"type":"Feature","id":513761,"geometry":{"type":"Point","coordinates":[29.51088452,-1.65741858999996,0]},"properties":{"OBJECTID":513761,"province":"Western Province","district":"Nyabihu","sector":"Karago","sector_id":"3405","label":"Karago Sector HQ","longitude":29.510884520000047,"latitude":-1.6574185899999634}},{"type":"Feature","id":520436,"geometry":{"type":"Point","coordinates":[29.0858732400001,-2.40449975999996,0]},"properties":{"OBJECTID":520436,"province":"Western Province","district":"Nyamasheke","sector":"Bushekeri","sector_id":"3701","label":"Bushekeri Sector HQ","longitude":29.085873240000069,"latitude":-2.4044997599999647}},{"type":"Feature","id":521462,"geometry":{"type":"Point","coordinates":[29.24820787,-2.31761712999997,0]},"properties":{"OBJECTID":521462,"province":"Western Province","district":"Nyamasheke","sector":"Karambi","sector_id":"3707","label":"Karambi Sector HQ","longitude":29.248207870000044,"latitude":-2.3176171299999737}},{"type":"Feature","id":523028,"geometry":{"type":"Point","coordinates":[29.00767842,-2.61028835999997,0]},"properties":{"OBJECTID":523028,"province":"Western Province","district":"Rusizi","sector":"Gitambi","sector_id":"3608","label":"Gitambi Sector HQ","longitude":29.007678420000047,"latitude":-2.61028835999997}},{"type":"Feature","id":524612,"geometry":{"type":"Point","coordinates":[29.41905911,-1.57853308999995,0]},"properties":{"OBJECTID":524612,"province":"Western Province","district":"Nyabihu","sector":"Kabatwa","sector_id":"3404","label":"Kabatwa Sector HQ","longitude":29.419059110000035,"latitude":-1.5785330899999508}},{"type":"Feature","id":531095,"geometry":{"type":"Point","coordinates":[29.0433711800001,-2.62498652999994,0]},"properties":{"OBJECTID":531095,"province":"Western Province","district":"Rusizi","sector":"Gikundamvura","sector_id":"3607","label":"Gikundamvura Sector HQ","longitude":29.043371180000065,"latitude":-2.6249865299999442}},{"type":"Feature","id":533163,"geometry":{"type":"Point","coordinates":[29.38353098,-1.96582069999994,0]},"properties":{"OBJECTID":533163,"province":"Western Province","district":"Rutsiro","sector":"Gihango","sector_id":"3202","label":"Gihango Sector HQ","longitude":29.383530980000046,"latitude":-1.9658206999999379}},{"type":"Feature","id":539582,"geometry":{"type":"Point","coordinates":[29.3446919400001,-1.93737918999994,0]},"properties":{"OBJECTID":539582,"province":"Western Province","district":"Rutsiro","sector":"Musasa","sector_id":"3208","label":"Musasa Sector HQ","longitude":29.344691940000075,"latitude":-1.9373791899999446}},{"type":"Feature","id":553507,"geometry":{"type":"Point","coordinates":[28.94109317,-2.55730317999996,0]},"properties":{"OBJECTID":553507,"province":"Western Province","district":"Rusizi","sector":"Nyakarenzo","sector_id":"3616","label":"Nyakarenzo Sector HQ","longitude":28.941093170000045,"latitude":-2.5573031799999626}},{"type":"Feature","id":563294,"geometry":{"type":"Point","coordinates":[29.1367484200001,-2.31835188999997,0]},"properties":{"OBJECTID":563294,"province":"Western Province","district":"Nyamasheke","sector":"Kanjongo","sector_id":"3706","label":"Kanjongo Sector HQ","longitude":29.13674842000006,"latitude":-2.318351889999974}},{"type":"Feature","id":564038,"geometry":{"type":"Point","coordinates":[28.93212127,-2.41863287999996,0]},"properties":{"OBJECTID":564038,"province":"Western Province","district":"Rusizi","sector":"Nkanka","sector_id":"3612","label":"Nkanka Sector HQ","longitude":28.932121270000039,"latitude":-2.4186328799999615}},{"type":"Feature","id":578610,"geometry":{"type":"Point","coordinates":[29.31179838,-1.81768807999993,0]},"properties":{"OBJECTID":578610,"province":"Western Province","district":"Rutsiro","sector":"Kigeyo","sector_id":"3203","label":"Kigeyo Sector HQ","longitude":29.311798380000027,"latitude":-1.8176880799999253}},{"type":"Feature","id":597375,"geometry":{"type":"Point","coordinates":[29.29850429,-1.74858821999993,0]},"properties":{"OBJECTID":597375,"province":"Western Province","district":"Rubavu","sector":"Nyamyumba","sector_id":"3309","label":"Nyamyumba Sector HQ","longitude":29.298504290000039,"latitude":-1.748588219999931}},{"type":"Feature","id":602520,"geometry":{"type":"Point","coordinates":[28.9657878900001,-2.53058464999998,0]},"properties":{"OBJECTID":602520,"province":"Western Province","district":"Rusizi","sector":"Nkungu","sector_id":"3614","label":"Nkungu Sector HQ","longitude":28.965787890000058,"latitude":-2.5305846499999802}},{"type":"Feature","id":612239,"geometry":{"type":"Point","coordinates":[29.2886424000001,-1.67357323999994,0]},"properties":{"OBJECTID":612239,"province":"Western Province","district":"Rubavu","sector":"Rubavu","sector_id":"3311","label":"Rubavu Sector HQ","longitude":29.288642400000072,"latitude":-1.6735732399999392}},{"type":"Feature","id":613791,"geometry":{"type":"Point","coordinates":[28.9975235700001,-2.43928160999997,0]},"properties":{"OBJECTID":613791,"province":"Western Province","district":"Nyamasheke","sector":"Bushenge","sector_id":"3702","label":"Bushenge Sector HQ","longitude":28.997523570000055,"latitude":-2.4392816099999663}},{"type":"Feature","id":622160,"geometry":{"type":"Point","coordinates":[29.62567396,-1.94245872999994,0]},"properties":{"OBJECTID":622160,"province":"Western Province","district":"Ngororero","sector":"Gatumba","sector_id":"3502","label":"Gatumba Sector HQ","longitude":29.625673960000029,"latitude":-1.9424587299999416}},{"type":"Feature","id":623992,"geometry":{"type":"Point","coordinates":[29.60916647,-1.79756573999992,0]},"properties":{"OBJECTID":623992,"province":"Western Province","district":"Ngororero","sector":"Hindiro","sector_id":"3503","label":"Hindiro Sector HQ","longitude":29.609166470000048,"latitude":-1.797565739999925}},{"type":"Feature","id":625187,"geometry":{"type":"Point","coordinates":[29.37296458,-2.16097042999996,0]},"properties":{"OBJECTID":625187,"province":"Western Province","district":"Karongi","sector":"Rwankuba","sector_id":"3112","label":"Rwankuba Sector HQ","longitude":29.37296458000003,"latitude":-2.1609704299999635}},{"type":"Feature","id":639821,"geometry":{"type":"Point","coordinates":[29.6362918300001,-1.83186989999996,0]},"properties":{"OBJECTID":639821,"province":"Western Province","district":"Ngororero","sector":"Ngororero","sector_id":"3511","label":"Ngororero Sector HQ","longitude":29.636291830000062,"latitude":-1.8318698999999583}},{"type":"Feature","id":645336,"geometry":{"type":"Point","coordinates":[29.56273164,-1.59795240999995,0]},"properties":{"OBJECTID":645336,"province":"Western Province","district":"Nyabihu","sector":"Kintobo","sector_id":"3406","label":"Kintobo Sector HQ","longitude":29.562731640000038,"latitude":-1.597952409999948}},{"type":"Feature","id":651824,"geometry":{"type":"Point","coordinates":[29.4577391,-2.01131525999995,0]},"properties":{"OBJECTID":651824,"province":"Western Province","district":"Rutsiro","sector":"Mukura","sector_id":"3206","label":"Mukura Sector HQ","longitude":29.457739100000026,"latitude":-2.0113152599999466}},{"type":"Feature","id":657785,"geometry":{"type":"Point","coordinates":[29.2922968600001,-2.15518935999995,0]},"properties":{"OBJECTID":657785,"province":"Western Province","district":"Karongi","sector":"Gishyita","sector_id":"3103","label":"Gishyita Sector HQ","longitude":29.292296860000079,"latitude":-2.1551893599999516}},{"type":"Feature","id":661304,"geometry":{"type":"Point","coordinates":[28.97120712,-2.47391850999998,0]},"properties":{"OBJECTID":661304,"province":"Western Province","district":"Rusizi","sector":"Giheke","sector_id":"3605","label":"Giheke Sector HQ","longitude":28.971207120000031,"latitude":-2.4739185099999759}},{"type":"Feature","id":668309,"geometry":{"type":"Point","coordinates":[29.02669544,-2.56345001999995,0]},"properties":{"OBJECTID":668309,"province":"Western Province","district":"Rusizi","sector":"Nyakabuye","sector_id":"3615","label":"Nyakabuye Sector HQ","longitude":29.026695440000026,"latitude":-2.5634500199999479}},{"type":"Feature","id":688934,"geometry":{"type":"Point","coordinates":[29.5848629000001,-2.11447598999996,0]},"properties":{"OBJECTID":688934,"province":"Western Province","district":"Karongi","sector":"Murundi","sector_id":"3107","label":"Murundi Sector HQ","longitude":29.584862900000076,"latitude":-2.11447598999996}},{"type":"Feature","id":693100,"geometry":{"type":"Point","coordinates":[29.4177076,-2.11230748999998,0]},"properties":{"OBJECTID":693100,"province":"Western Province","district":"Karongi","sector":"Gitesi","sector_id":"3104","label":"Gitesi Sector HQ","longitude":29.417707600000028,"latitude":-2.1123074899999779}},{"type":"Feature","id":701394,"geometry":{"type":"Point","coordinates":[29.31662699,-2.13772987999994,0]},"properties":{"OBJECTID":701394,"province":"Western Province","district":"Karongi","sector":"Mubuga","sector_id":"3105","label":"Mubuga Sector HQ","longitude":29.316626990000032,"latitude":-2.137729879999938}},{"type":"Feature","id":704702,"geometry":{"type":"Point","coordinates":[29.6171898800001,-1.75578260999993,0]},"properties":{"OBJECTID":704702,"province":"Western Province","district":"Ngororero","sector":"Matyazo","sector_id":"3507","label":"Matyazo Sector HQ","longitude":29.617189880000069,"latitude":-1.7557826099999261}},{"type":"Feature","id":711454,"geometry":{"type":"Point","coordinates":[29.55632717,-1.70243663999997,0]},"properties":{"OBJECTID":711454,"province":"Western Province","district":"Nyabihu","sector":"Jomba","sector_id":"3403","label":"Jomba Sector HQ","longitude":29.556327170000031,"latitude":-1.7024366399999735}},{"type":"Feature","id":719519,"geometry":{"type":"Point","coordinates":[28.9546533700001,-2.64820161999995,0]},"properties":{"OBJECTID":719519,"province":"Western Province","district":"Rusizi","sector":"Nzahaha","sector_id":"3617","label":"Nzahaha Sector HQ","longitude":28.954653370000074,"latitude":-2.6482016199999521}},{"type":"Feature","id":721242,"geometry":{"type":"Point","coordinates":[29.0260680000001,-2.33598705999998,0]},"properties":{"OBJECTID":721242,"province":"Western Province","district":"Nyamasheke","sector":"Nyabitekeri","sector_id":"3712","label":"Nyabitekeri Sector HQ","longitude":29.026068000000066,"latitude":-2.3359870599999795}},{"type":"Feature","id":722143,"geometry":{"type":"Point","coordinates":[29.33325591,-1.70249374999997,0]},"properties":{"OBJECTID":722143,"province":"Western Province","district":"Rubavu","sector":"Nyundo","sector_id":"3310","label":"Nyundo Sector HQ","longitude":29.333255910000048,"latitude":-1.7024937499999737}},{"type":"Feature","id":722620,"geometry":{"type":"Point","coordinates":[29.0088431300001,-2.39269127999995,0]},"properties":{"OBJECTID":722620,"province":"Western Province","district":"Nyamasheke","sector":"Shangi","sector_id":"3715","label":"Shangi Sector HQ","longitude":29.008843130000059,"latitude":-2.3926912799999513}},{"type":"Feature","id":731702,"geometry":{"type":"Point","coordinates":[29.32338199,-1.87801185999996,0]},"properties":{"OBJECTID":731702,"province":"Western Province","district":"Rutsiro","sector":"Mushonyi","sector_id":"3209","label":"Mushonyi Sector HQ","longitude":29.32338199000003,"latitude":-1.8780118599999582}},{"type":"Feature","id":738885,"geometry":{"type":"Point","coordinates":[29.63627022,-1.68854790999995,0]},"properties":{"OBJECTID":738885,"province":"Western Province","district":"Nyabihu","sector":"Shyira","sector_id":"3412","label":"Shyira Sector HQ","longitude":29.636270220000029,"latitude":-1.6885479099999543}},{"type":"Feature","id":741166,"geometry":{"type":"Point","coordinates":[29.5110122500001,-1.71190430999997,0]},"properties":{"OBJECTID":741166,"province":"Western Province","district":"Nyabihu","sector":"Muringa","sector_id":"3408","label":"Muringa Sector HQ","longitude":29.511012250000078,"latitude":-1.7119043099999658}},{"type":"Feature","id":745022,"geometry":{"type":"Point","coordinates":[29.2145617,-2.61792613999995,0]},"properties":{"OBJECTID":745022,"province":"Western Province","district":"Rusizi","sector":"Bweyeye","sector_id":"3603","label":"Bweyeye Sector HQ","longitude":29.214561700000047,"latitude":-2.6179261399999518}},{"type":"Feature","id":751716,"geometry":{"type":"Point","coordinates":[29.2802814,-2.20792511999997,0]},"properties":{"OBJECTID":751716,"province":"Western Province","district":"Nyamasheke","sector":"Mahembe","sector_id":"3711","label":"Mahembe Sector HQ","longitude":29.280281400000035,"latitude":-2.2079251199999703}},{"type":"Feature","id":766076,"geometry":{"type":"Point","coordinates":[29.38635663,-1.59884567999995,0]},"properties":{"OBJECTID":766076,"province":"Western Province","district":"Rubavu","sector":"Mudende","sector_id":"3307","label":"Mudende Sector HQ","longitude":29.386356630000023,"latitude":-1.598845679999954}},{"type":"Feature","id":766722,"geometry":{"type":"Point","coordinates":[29.4176503,-2.23490137999994,0]},"properties":{"OBJECTID":766722,"province":"Western Province","district":"Karongi","sector":"Mutuntu","sector_id":"3108","label":"Mutuntu Sector HQ","longitude":29.417650300000048,"latitude":-2.2349013799999398}},{"type":"Feature","id":771999,"geometry":{"type":"Point","coordinates":[29.0904643000001,-2.36807227999998,0]},"properties":{"OBJECTID":771999,"province":"Western Province","district":"Nyamasheke","sector":"Kagano","sector_id":"3705","label":"Kagano Sector HQ","longitude":29.090464300000065,"latitude":-2.3680722799999785}},{"type":"Feature","id":772073,"geometry":{"type":"Point","coordinates":[29.52763034,-1.89146553999996,0]},"properties":{"OBJECTID":772073,"province":"Western Province","district":"Ngororero","sector":"Sovu","sector_id":"3513","label":"Sovu Sector HQ","longitude":29.52763034000003,"latitude":-1.891465539999956}},{"type":"Feature","id":793948,"geometry":{"type":"Point","coordinates":[28.91765302,-2.47212712999993,0]},"properties":{"OBJECTID":793948,"province":"Western Province","district":"Rusizi","sector":"Gihundwe","sector_id":"3606","label":"Gihundwe Sector HQ","longitude":28.917653020000046,"latitude":-2.472127129999933}},{"type":"Feature","id":795668,"geometry":{"type":"Point","coordinates":[29.5776275900001,-2.18204244999993,0]},"properties":{"OBJECTID":795668,"province":"Western Province","district":"Karongi","sector":"Murambi","sector_id":"3106","label":"Murambi Sector HQ","longitude":29.577627590000077,"latitude":-2.1820424499999262}},{"type":"Feature","id":797830,"geometry":{"type":"Point","coordinates":[29.44145683,-1.95122533999995,0]},"properties":{"OBJECTID":797830,"province":"Western Province","district":"Rutsiro","sector":"Manihira","sector_id":"3205","label":"Manihira Sector HQ","longitude":29.44145683000005,"latitude":-1.9512253399999508}},{"type":"Feature","id":800526,"geometry":{"type":"Point","coordinates":[28.89003839,-2.53728071999996,0]},"properties":{"OBJECTID":800526,"province":"Western Province","district":"Rusizi","sector":"Mururu","sector_id":"3611","label":"Mururu Sector HQ","longitude":28.890038390000029,"latitude":-2.5372807199999556}},{"type":"Feature","id":804992,"geometry":{"type":"Point","coordinates":[29.3592930400001,-1.76902362999994,0]},"properties":{"OBJECTID":804992,"province":"Western Province","district":"Rutsiro","sector":"Nyabirasi","sector_id":"3211","label":"Nyabirasi Sector HQ","longitude":29.359293040000068,"latitude":-1.7690236299999356}},{"type":"Feature","id":819713,"geometry":{"type":"Point","coordinates":[29.4803611200001,-2.05662105999994,0]},"properties":{"OBJECTID":819713,"province":"Western Province","district":"Karongi","sector":"Rugabano","sector_id":"3110","label":"Rugabano Sector HQ","longitude":29.480361120000055,"latitude":-2.0566210599999408}},{"type":"Feature","id":834634,"geometry":{"type":"Point","coordinates":[28.94513269,-2.63166117999998,0]},"properties":{"OBJECTID":834634,"province":"Western Province","district":"Rusizi","sector":"Rwimbogo","sector_id":"3618","label":"Rwimbogo Sector HQ","longitude":28.945132690000037,"latitude":-2.6316611799999805}},{"type":"Feature","id":847092,"geometry":{"type":"Point","coordinates":[28.8983832000001,-2.40703412999994,0]},"properties":{"OBJECTID":847092,"province":"Western Province","district":"Rusizi","sector":"Nkombo","sector_id":"3613","label":"Nkombo Sector HQ","longitude":28.898383200000069,"latitude":-2.4070341299999427}},{"type":"Feature","id":864485,"geometry":{"type":"Point","coordinates":[29.63237022,-1.62830989999998,0]},"properties":{"OBJECTID":864485,"province":"Western Province","district":"Nyabihu","sector":"Rugera","sector_id":"3410","label":"Rugera Sector HQ","longitude":29.632370220000041,"latitude":-1.6283098999999766}},{"type":"Feature","id":865765,"geometry":{"type":"Point","coordinates":[29.3529053400001,-2.07021757999996,0]},"properties":{"OBJECTID":865765,"province":"Western Province","district":"Karongi","sector":"Bwishyura","sector_id":"3101","label":"Bwishyura Sector HQ","longitude":29.352905340000063,"latitude":-2.0702175799999623}},{"type":"Feature","id":869238,"geometry":{"type":"Point","coordinates":[29.0337353300001,-2.51955176999996,0]},"properties":{"OBJECTID":869238,"province":"Western Province","district":"Nyamasheke","sector":"Karengera","sector_id":"3708","label":"Karengera Sector HQ","longitude":29.03373533000007,"latitude":-2.5195517699999641}},{"type":"Feature","id":876781,"geometry":{"type":"Point","coordinates":[29.2392665200001,-2.19876303999996,0]},"properties":{"OBJECTID":876781,"province":"Western Province","district":"Nyamasheke","sector":"Gihombo","sector_id":"3704","label":"Gihombo Sector HQ","longitude":29.239266520000058,"latitude":-2.1987630399999603}},{"type":"Feature","id":882986,"geometry":{"type":"Point","coordinates":[29.3194696300001,-1.77999698999997,0]},"properties":{"OBJECTID":882986,"province":"Western Province","district":"Rutsiro","sector":"Kivumu","sector_id":"3204","label":"Kivumu Sector HQ","longitude":29.319469630000071,"latitude":-1.7799969899999724}},{"type":"Feature","id":893994,"geometry":{"type":"Point","coordinates":[29.5257555000001,-2.14465756999994,0]},"properties":{"OBJECTID":893994,"province":"Western Province","district":"Karongi","sector":"Gashari","sector_id":"3102","label":"Gashari Sector HQ","longitude":29.525755500000059,"latitude":-2.1446575699999357}},{"type":"Feature","id":895501,"geometry":{"type":"Point","coordinates":[29.00858083,-2.69716536999994,0]},"properties":{"OBJECTID":895501,"province":"Western Province","district":"Rusizi","sector":"Bugarama","sector_id":"3601","label":"Bugarama Sector HQ","longitude":29.008580830000028,"latitude":-2.6971653699999365}},{"type":"Feature","id":895694,"geometry":{"type":"Point","coordinates":[29.3840449300001,-1.90560498999997,0]},"properties":{"OBJECTID":895694,"province":"Western Province","district":"Rutsiro","sector":"Murunda","sector_id":"3207","label":"Murunda Sector HQ","longitude":29.384044930000073,"latitude":-1.9056049899999721}},{"type":"Feature","id":914793,"geometry":{"type":"Point","coordinates":[29.5153740000001,-1.59503165999996,0]},"properties":{"OBJECTID":914793,"province":"Western Province","district":"Nyabihu","sector":"Mukamira","sector_id":"3407","label":"Mukamira Sector HQ","longitude":29.515374000000065,"latitude":-1.595031659999961}},{"type":"Feature","id":938645,"geometry":{"type":"Point","coordinates":[29.3781691,-1.64654286999996,0]},"properties":{"OBJECTID":938645,"province":"Western Province","district":"Rubavu","sector":"Kanzenze","sector_id":"3306","label":"Kanzenze Sector HQ","longitude":29.378169100000036,"latitude":-1.646542869999962}},{"type":"Feature","id":948925,"geometry":{"type":"Point","coordinates":[28.93803352,-2.61636218999996,0]},"properties":{"OBJECTID":948925,"province":"Western Province","district":"Rusizi","sector":"Gashonga","sector_id":"3604","label":"Gashonga Sector HQ","longitude":28.938033520000033,"latitude":-2.6163621899999612}},{"type":"Feature","id":968892,"geometry":{"type":"Point","coordinates":[29.3625876900001,-2.24214144999996,0]},"properties":{"OBJECTID":968892,"province":"Western Province","district":"Karongi","sector":"Twumba","sector_id":"3113","label":"Twumba Sector HQ","longitude":29.362587690000055,"latitude":-2.2421414499999628}},{"type":"Feature","id":970798,"geometry":{"type":"Point","coordinates":[29.4967550000001,-2.21811645999998,0]},"properties":{"OBJECTID":970798,"province":"Western Province","district":"Karongi","sector":"Ruganda","sector_id":"3111","label":"Ruganda Sector HQ","longitude":29.496755000000064,"latitude":-2.2181164599999761}},{"type":"Feature","id":986473,"geometry":{"type":"Point","coordinates":[29.3697199900001,-1.65934084999998,0]},"properties":{"OBJECTID":986473,"province":"Western Province","district":"Rubavu","sector":"Nyakiriba","sector_id":"3308","label":"Nyakiriba Sector HQ","longitude":29.369719990000078,"latitude":-1.6593408499999782}},{"type":"Feature","id":988263,"geometry":{"type":"Point","coordinates":[29.1581122700001,-2.39354141999996,0]},"properties":{"OBJECTID":988263,"province":"Western Province","district":"Nyamasheke","sector":"Rangiro","sector_id":"3713","label":"Rangiro Sector HQ","longitude":29.158112270000061,"latitude":-2.3935414199999627}},{"type":"Feature","id":991305,"geometry":{"type":"Point","coordinates":[29.2973375400001,-1.89742573999996,0]},"properties":{"OBJECTID":991305,"province":"Western Province","district":"Rutsiro","sector":"Boneza","sector_id":"3201","label":"Boneza Sector HQ","longitude":29.297337540000058,"latitude":-1.8974257399999601}},{"type":"Feature","id":998156,"geometry":{"type":"Point","coordinates":[29.59459301,-1.87027796999996,0]},"properties":{"OBJECTID":998156,"province":"Western Province","district":"Ngororero","sector":"Kageyo","sector_id":"3505","label":"Kageyo Sector HQ","longitude":29.59459301000004,"latitude":-1.870277969999961}},{"type":"Feature","id":1011083,"geometry":{"type":"Point","coordinates":[28.90776161,-2.50099091999994,0]},"properties":{"OBJECTID":1011083,"province":"Western Province","district":"Rusizi","sector":"Kamembe","sector_id":"3609","label":"Kamembe Sector HQ","longitude":28.907761610000023,"latitude":-2.5009909199999356}},{"type":"Feature","id":1011442,"geometry":{"type":"Point","coordinates":[29.2181106800001,-2.30557700999998,0]},"properties":{"OBJECTID":1011442,"province":"Western Province","district":"Nyamasheke","sector":"Macuba","sector_id":"3710","label":"Macuba Sector HQ","longitude":29.218110680000052,"latitude":-2.3055770099999791}},{"type":"Feature","id":1012127,"geometry":{"type":"Point","coordinates":[29.4099026600001,-2.06276469999995,0]},"properties":{"OBJECTID":1012127,"province":"Western Province","district":"Karongi","sector":"Rubengera","sector_id":"3109","label":"Rubengera Sector HQ","longitude":29.409902660000057,"latitude":-2.0627646999999456}},{"type":"Feature","id":1018337,"geometry":{"type":"Point","coordinates":[29.5985127000001,-2.05501941999995,0]},"properties":{"OBJECTID":1018337,"province":"Western Province","district":"Ngororero","sector":"Nyange","sector_id":"3512","label":"Nyange Sector HQ","longitude":29.598512700000072,"latitude":-2.055019419999951}},{"type":"Feature","id":1034648,"geometry":{"type":"Point","coordinates":[29.4234897100001,-1.62675771999994,0]},"properties":{"OBJECTID":1034648,"province":"Western Province","district":"Nyabihu","sector":"Bigogwe","sector_id":"3401","label":"Bigogwe Sector HQ","longitude":29.423489710000069,"latitude":-1.6267577199999437}},{"type":"Feature","id":1043863,"geometry":{"type":"Point","coordinates":[29.0660688300001,-2.57703933999994,0]},"properties":{"OBJECTID":1043863,"province":"Western Province","district":"Rusizi","sector":"Butare","sector_id":"3602","label":"Butare Sector HQ","longitude":29.066068830000063,"latitude":-2.5770393399999421}},{"type":"Feature","id":1048121,"geometry":{"type":"Point","coordinates":[29.39513028,-2.00790158999996,0]},"properties":{"OBJECTID":1048121,"province":"Western Province","district":"Rutsiro","sector":"Mushubati","sector_id":"3210","label":"Mushubati Sector HQ","longitude":29.395130280000046,"latitude":-2.0079015899999604}},{"type":"Feature","id":1057563,"geometry":{"type":"Point","coordinates":[29.5053029000001,-1.77965609999995,0]},"properties":{"OBJECTID":1057563,"province":"Western Province","district":"Ngororero","sector":"Muhanda","sector_id":"3508","label":"Muhanda Sector HQ","longitude":29.505302900000061,"latitude":-1.7796560999999542}},{"type":"Feature","id":1065180,"geometry":{"type":"Point","coordinates":[29.01182592,-2.64497575999997,0]},"properties":{"OBJECTID":1065180,"province":"Western Province","district":"Rusizi","sector":"Muganza","sector_id":"3610","label":"Muganza Sector HQ","longitude":29.011825920000035,"latitude":-2.6449757599999657}},{"type":"Feature","id":1069036,"geometry":{"type":"Point","coordinates":[29.29551236,-1.68802604999996,0]},"properties":{"OBJECTID":1069036,"province":"Western Province","district":"Rubavu","sector":"Rugerero","sector_id":"3312","label":"Rugerero Sector HQ","longitude":29.295512360000032,"latitude":-1.6880260499999622}},{"type":"Feature","id":1069602,"geometry":{"type":"Point","coordinates":[29.3769605200001,-1.57082749999995,0]},"properties":{"OBJECTID":1069602,"province":"Western Province","district":"Rubavu","sector":"Bugeshi","sector_id":"3301","label":"Bugeshi Sector HQ","longitude":29.376960520000068,"latitude":-1.5708274999999503}},{"type":"Feature","id":1101864,"geometry":{"type":"Point","coordinates":[29.3479410200001,-1.70052149999998,0]},"properties":{"OBJECTID":1101864,"province":"Western Province","district":"Rubavu","sector":"Kanama","sector_id":"3305","label":"Kanama Sector HQ","longitude":29.347941020000064,"latitude":-1.7005214999999794}},{"type":"Feature","id":1103399,"geometry":{"type":"Point","coordinates":[29.53777086,-1.86879629999993,0]},"properties":{"OBJECTID":1103399,"province":"Western Province","district":"Ngororero","sector":"Kavumu","sector_id":"3506","label":"Kavumu Sector HQ","longitude":29.537770860000023,"latitude":-1.8687962999999286}},{"type":"Feature","id":1129616,"geometry":{"type":"Point","coordinates":[29.34497823,-1.60495697999994,0]},"properties":{"OBJECTID":1129616,"province":"Western Province","district":"Rubavu","sector":"Busasamana","sector_id":"3302","label":"Busasamana Sector HQ","longitude":29.344978230000038,"latitude":-1.6049569799999404}},{"type":"Feature","id":1133458,"geometry":{"type":"Point","coordinates":[29.0449376500001,-2.44608155999993,0]},"properties":{"OBJECTID":1133458,"province":"Western Province","district":"Nyamasheke","sector":"Ruharambuga","sector_id":"3714","label":"Ruharambuga Sector HQ","longitude":29.044937650000065,"latitude":-2.446081559999925}},{"type":"Feature","id":1134917,"geometry":{"type":"Point","coordinates":[29.45487229,-1.61742342999997,0]},"properties":{"OBJECTID":1134917,"province":"Western Province","district":"Nyabihu","sector":"Jenda","sector_id":"3402","label":"Jenda Sector HQ","longitude":29.454872290000026,"latitude":-1.6174234299999739}},{"type":"Feature","id":1144466,"geometry":{"type":"Point","coordinates":[29.3502703300001,-1.88388606999996,0]},"properties":{"OBJECTID":1144466,"province":"Western Province","district":"Rutsiro","sector":"Ruhango","sector_id":"3212","label":"Ruhango Sector HQ","longitude":29.350270330000058,"latitude":-1.88388606999996}},{"type":"Feature","id":1149374,"geometry":{"type":"Point","coordinates":[29.6083347900001,-1.99202576999994,0]},"properties":{"OBJECTID":1149374,"province":"Western Province","district":"Ngororero","sector":"Ndaro","sector_id":"3510","label":"Ndaro Sector HQ","longitude":29.608334790000072,"latitude":-1.9920257699999411}},{"type":"Feature","id":1156183,"geometry":{"type":"Point","coordinates":[29.5529515100001,-1.77087041999994,0]},"properties":{"OBJECTID":1156183,"province":"Western Province","district":"Ngororero","sector":"Kabaya","sector_id":"3504","label":"Kabaya Sector HQ","longitude":29.552951510000071,"latitude":-1.7708704199999374}},{"type":"Feature","id":1165365,"geometry":{"type":"Point","coordinates":[29.5172527500001,-1.67436154999996,0]},"properties":{"OBJECTID":1165365,"province":"Western Province","district":"Nyabihu","sector":"Rambura","sector_id":"3409","label":"Rambura Sector HQ","longitude":29.517252750000068,"latitude":-1.6743615499999578}},{"type":"Feature","id":1167303,"geometry":{"type":"Point","coordinates":[29.4709416100001,-1.94600171999997,0]},"properties":{"OBJECTID":1167303,"province":"Western Province","district":"Rutsiro","sector":"Rusebeya","sector_id":"3213","label":"Rusebeya Sector HQ","longitude":29.470941610000068,"latitude":-1.9460017199999697}},{"type":"Feature","id":1170462,"geometry":{"type":"Point","coordinates":[29.62401262,-1.89203161999995,0]},"properties":{"OBJECTID":1170462,"province":"Western Province","district":"Ngororero","sector":"Muhororo","sector_id":"3509","label":"Muhororo Sector HQ","longitude":29.62401262000003,"latitude":-1.8920316199999547}},{"type":"Feature","id":1172366,"geometry":{"type":"Point","coordinates":[29.5755652300001,-1.66068166999997,0]},"properties":{"OBJECTID":1172366,"province":"Western Province","district":"Nyabihu","sector":"Rurembo","sector_id":"3411","label":"Rurembo Sector HQ","longitude":29.575565230000052,"latitude":-1.660681669999974}},{"type":"Feature","id":1183694,"geometry":{"type":"Point","coordinates":[29.5803970800001,-1.94918477999994,0]},"properties":{"OBJECTID":1183694,"province":"Western Province","district":"Ngororero","sector":"Bwira","sector_id":"3501","label":"Bwira Sector HQ","longitude":29.580397080000068,"latitude":-1.9491847799999391}},{"type":"Feature","id":1184202,"geometry":{"type":"Point","coordinates":[29.2242839900001,-2.25672625999994,0]},"properties":{"OBJECTID":1184202,"province":"Western Province","district":"Nyamasheke","sector":"Kirimbi","sector_id":"3709","label":"Kirimbi Sector HQ","longitude":29.22428399000006,"latitude":-2.2567262599999367}},{"type":"Feature","id":1195654,"geometry":{"type":"Point","coordinates":[29.794574217,-1.73435208999996,0]},"properties":{"OBJECTID":1195654,"province":"Northern Province","district":"Gakenke","sector":"Minazi","sector_id":"4211","label":"Minazi Sector HQ","longitude":29.794574217000047,"latitude":-1.7343520899999589}},{"type":"Feature","id":1207246,"geometry":{"type":"Point","coordinates":[29.70242017,-1.62286463399994,0]},"properties":{"OBJECTID":1207246,"province":"Northern Province","district":"Gakenke","sector":"Busengo","sector_id":"4201","label":"Busengo Sector HQ","longitude":29.702420170000039,"latitude":-1.6228646339999386}},{"type":"Feature","id":1223374,"geometry":{"type":"Point","coordinates":[29.85309148,-1.64187784299997,0]},"properties":{"OBJECTID":1223374,"province":"Northern Province","district":"Gakenke","sector":"Gashenyi","sector_id":"4205","label":"Gashenyi Sector HQ","longitude":29.853091480000046,"latitude":-1.6418778429999747}},{"type":"Feature","id":1225416,"geometry":{"type":"Point","coordinates":[30.009840291,-1.52347411699998,0]},"properties":{"OBJECTID":1225416,"province":"Northern Province","district":"Gicumbi","sector":"Manyagiro","sector_id":"4508","label":"Manyagiro Sector HQ","longitude":30.009840291000046,"latitude":-1.5234741169999779}},{"type":"Feature","id":1228444,"geometry":{"type":"Point","coordinates":[29.7499918510001,-1.54844193099996,0]},"properties":{"OBJECTID":1228444,"province":"Northern Province","district":"Musanze","sector":"Gashaki","sector_id":"4304","label":"Gashaki Sector HQ","longitude":29.749991851000061,"latitude":-1.5484419309999566}},{"type":"Feature","id":1239056,"geometry":{"type":"Point","coordinates":[30.1387096170001,-1.68233836999997,0]},"properties":{"OBJECTID":1239056,"province":"Northern Province","district":"Gicumbi","sector":"Nyamiyaga","sector_id":"4513","label":"Nyamiyaga Sector HQ","longitude":30.138709617000075,"latitude":-1.6823383699999681}},{"type":"Feature","id":1242327,"geometry":{"type":"Point","coordinates":[29.7497032260001,-1.59399386299998,0]},"properties":{"OBJECTID":1242327,"province":"Northern Province","district":"Gakenke","sector":"Kivuruga","sector_id":"4209","label":"Kivuruga Sector HQ","longitude":29.749703226000065,"latitude":-1.5939938629999801}},{"type":"Feature","id":1249096,"geometry":{"type":"Point","coordinates":[30.2232693920001,-1.76122804699997,0]},"properties":{"OBJECTID":1249096,"province":"Northern Province","district":"Gicumbi","sector":"Giti","sector_id":"4505","label":"Giti Sector HQ","longitude":30.223269392000077,"latitude":-1.7612280469999746}},{"type":"Feature","id":1253917,"geometry":{"type":"Point","coordinates":[29.6961107340001,-1.45524574799992,0]},"properties":{"OBJECTID":1253917,"province":"Northern Province","district":"Burera","sector":"Gahunga","sector_id":"4405","label":"Gahunga Sector HQ","longitude":29.696110734000058,"latitude":-1.4552457479999248}},{"type":"Feature","id":1255337,"geometry":{"type":"Point","coordinates":[29.8400033200001,-1.62618266499993,0]},"properties":{"OBJECTID":1255337,"province":"Northern Province","district":"Gakenke","sector":"Karambo","sector_id":"4208","label":"Karambo Sector HQ","longitude":29.840003320000051,"latitude":-1.6261826649999307}},{"type":"Feature","id":1257983,"geometry":{"type":"Point","coordinates":[29.9370809700001,-1.81294513099994,0]},"properties":{"OBJECTID":1257983,"province":"Northern Province","district":"Rulindo","sector":"Rusiga","sector_id":"4115","label":"Rusiga Sector HQ","longitude":29.937080970000068,"latitude":-1.8129451309999354}},{"type":"Feature","id":1284068,"geometry":{"type":"Point","coordinates":[30.167720355,-1.62760984199997,0]},"properties":{"OBJECTID":1284068,"province":"Northern Province","district":"Gicumbi","sector":"Ruvune","sector_id":"4519","label":"Ruvune Sector HQ","longitude":30.167720355000029,"latitude":-1.6276098419999698}},{"type":"Feature","id":1287182,"geometry":{"type":"Point","coordinates":[29.6885233950001,-1.58216581599993,0]},"properties":{"OBJECTID":1287182,"province":"Northern Province","district":"Gakenke","sector":"Cyabingo","sector_id":"4203","label":"Cyabingo Sector HQ","longitude":29.688523395000061,"latitude":-1.5821658159999288}},{"type":"Feature","id":1291622,"geometry":{"type":"Point","coordinates":[29.983524312,-1.66731783899996,0]},"properties":{"OBJECTID":1291622,"province":"Northern Province","district":"Rulindo","sector":"Kinihira","sector_id":"4107","label":"Kinihira Sector HQ","longitude":29.983524312000043,"latitude":-1.6673178389999634}},{"type":"Feature","id":1296686,"geometry":{"type":"Point","coordinates":[29.9694088800001,-1.85471002899993,0]},"properties":{"OBJECTID":1296686,"province":"Northern Province","district":"Rulindo","sector":"Shyorongi","sector_id":"4116","label":"Shyorongi Sector HQ","longitude":29.96940888000006,"latitude":-1.8547100289999321}},{"type":"Feature","id":1306395,"geometry":{"type":"Point","coordinates":[29.663236157,-1.64424764199993,0]},"properties":{"OBJECTID":1306395,"province":"Northern Province","district":"Gakenke","sector":"Rusasa","sector_id":"4218","label":"Rusasa Sector HQ","longitude":29.663236157000028,"latitude":-1.6442476419999252}},{"type":"Feature","id":1306908,"geometry":{"type":"Point","coordinates":[29.878003828,-1.72026187599994,0]},"properties":{"OBJECTID":1306908,"province":"Northern Province","district":"Gakenke","sector":"Muyongwe","sector_id":"4214","label":"Muyongwe Sector HQ","longitude":29.878003828000033,"latitude":-1.7202618759999382}},{"type":"Feature","id":1317605,"geometry":{"type":"Point","coordinates":[29.7954242270001,-1.54182546299995,0]},"properties":{"OBJECTID":1317605,"province":"Northern Province","district":"Burera","sector":"Rugengabari","sector_id":"4414","label":"Rugengabari Sector HQ","longitude":29.795424227000069,"latitude":-1.5418254629999524}},{"type":"Feature","id":1321121,"geometry":{"type":"Point","coordinates":[29.5621868430001,-1.53808743399998,0]},"properties":{"OBJECTID":1321121,"province":"Northern Province","district":"Musanze","sector":"Busogo","sector_id":"4301","label":"Busogo Sector HQ","longitude":29.562186843000063,"latitude":-1.5380874339999764}},{"type":"Feature","id":1335445,"geometry":{"type":"Point","coordinates":[29.7157603530001,-1.68575558499992,0]},"properties":{"OBJECTID":1335445,"province":"Northern Province","district":"Gakenke","sector":"Muzo","sector_id":"4215","label":"Muzo Sector HQ","longitude":29.715760353000064,"latitude":-1.6857555849999244}},{"type":"Feature","id":1339944,"geometry":{"type":"Point","coordinates":[29.849418885,-1.82473681899995,0]},"properties":{"OBJECTID":1339944,"province":"Northern Province","district":"Gakenke","sector":"Ruli","sector_id":"4217","label":"Ruli Sector HQ","longitude":29.849418885000034,"latitude":-1.824736818999952}},{"type":"Feature","id":1340401,"geometry":{"type":"Point","coordinates":[29.778934582,-1.38464848599995,0]},"properties":{"OBJECTID":1340401,"province":"Northern Province","district":"Burera","sector":"Kagogo","sector_id":"4408","label":"Kagogo Sector HQ","longitude":29.778934582000034,"latitude":-1.3846484859999464}},{"type":"Feature","id":1352947,"geometry":{"type":"Point","coordinates":[30.04183212,-1.78832855999997,0]},"properties":{"OBJECTID":1352947,"province":"Northern Province","district":"Rulindo","sector":"Murambi","sector_id":"4111","label":"Murambi Sector HQ","longitude":30.041832120000038,"latitude":-1.7883285599999681}},{"type":"Feature","id":1354495,"geometry":{"type":"Point","coordinates":[29.8830843580001,-1.65016613699993,0]},"properties":{"OBJECTID":1354495,"province":"Northern Province","district":"Rulindo","sector":"Base","sector_id":"4101","label":"Base Sector HQ","longitude":29.883084358000076,"latitude":-1.6501661369999283}},{"type":"Feature","id":1366843,"geometry":{"type":"Point","coordinates":[29.8571117560001,-1.72775389599997,0]},"properties":{"OBJECTID":1366843,"province":"Northern Province","district":"Gakenke","sector":"Rushashi","sector_id":"4219","label":"Rushashi Sector HQ","longitude":29.857111756000052,"latitude":-1.7277538959999674}},{"type":"Feature","id":1380407,"geometry":{"type":"Point","coordinates":[29.721268142,-1.53881750699998,0]},"properties":{"OBJECTID":1380407,"province":"Northern Province","district":"Musanze","sector":"Remera","sector_id":"4313","label":"Remera Sector HQ","longitude":29.721268142000042,"latitude":-1.5388175069999761}},{"type":"Feature","id":1385049,"geometry":{"type":"Point","coordinates":[30.012167848,-1.69212592799994,0]},"properties":{"OBJECTID":1385049,"province":"Northern Province","district":"Rulindo","sector":"Buyoga","sector_id":"4104","label":"Buyoga Sector HQ","longitude":30.012167848000047,"latitude":-1.692125927999939}},{"type":"Feature","id":1393239,"geometry":{"type":"Point","coordinates":[29.8301993210001,-1.77164777899998,0]},"properties":{"OBJECTID":1393239,"province":"Northern Province","district":"Gakenke","sector":"Coko","sector_id":"4202","label":"Coko Sector HQ","longitude":29.830199321000066,"latitude":-1.7716477789999772}},{"type":"Feature","id":1397237,"geometry":{"type":"Point","coordinates":[29.7908203590001,-1.62232329299997,0]},"properties":{"OBJECTID":1397237,"province":"Northern Province","district":"Gakenke","sector":"Nemba","sector_id":"4216","label":"Nemba Sector HQ","longitude":29.790820359000065,"latitude":-1.6223232929999654}},{"type":"Feature","id":1404690,"geometry":{"type":"Point","coordinates":[29.6613353220001,-1.70236421699997,0]},"properties":{"OBJECTID":1404690,"province":"Northern Province","district":"Gakenke","sector":"Mugunga","sector_id":"4212","label":"Mugunga Sector HQ","longitude":29.66133532200007,"latitude":-1.7023642169999675}},{"type":"Feature","id":1405497,"geometry":{"type":"Point","coordinates":[29.837589989,-1.41839932699997,0]},"properties":{"OBJECTID":1405497,"province":"Northern Province","district":"Burera","sector":"Butaro","sector_id":"4402","label":"Butaro Sector HQ","longitude":29.837589989000037,"latitude":-1.4183993269999746}},{"type":"Feature","id":1406482,"geometry":{"type":"Point","coordinates":[29.678659333,-1.68589481499993,0]},"properties":{"OBJECTID":1406482,"province":"Northern Province","district":"Gakenke","sector":"Janja","sector_id":"4206","label":"Janja Sector HQ","longitude":29.678659333000041,"latitude":-1.6858948149999264}},{"type":"Feature","id":1445787,"geometry":{"type":"Point","coordinates":[29.5583203480001,-1.53213936499998,0]},"properties":{"OBJECTID":1445787,"province":"Northern Province","district":"Musanze","sector":"Gataraga","sector_id":"4305","label":"Gataraga Sector HQ","longitude":29.558320348000052,"latitude":-1.5321393649999777}},{"type":"Feature","id":1454932,"geometry":{"type":"Point","coordinates":[29.810067969,-1.37522299399996,0]},"properties":{"OBJECTID":1454932,"province":"Northern Province","district":"Burera","sector":"Kinyababa","sector_id":"4410","label":"Kinyababa Sector HQ","longitude":29.810067969000045,"latitude":-1.3752229939999552}},{"type":"Feature","id":1457564,"geometry":{"type":"Point","coordinates":[29.582771274,-1.45716724099998,0]},"properties":{"OBJECTID":1457564,"province":"Northern Province","district":"Musanze","sector":"Musanze","sector_id":"4310","label":"Musanze Sector HQ","longitude":29.582771274000038,"latitude":-1.4571672409999792}},{"type":"Feature","id":1458229,"geometry":{"type":"Point","coordinates":[29.7452738530001,-1.37899274099993,0]},"properties":{"OBJECTID":1458229,"province":"Northern Province","district":"Burera","sector":"Cyanika","sector_id":"4403","label":"Cyanika Sector HQ","longitude":29.745273853000072,"latitude":-1.3789927409999336}},{"type":"Feature","id":1468217,"geometry":{"type":"Point","coordinates":[29.833963661,-1.49715730699995,0]},"properties":{"OBJECTID":1468217,"province":"Northern Province","district":"Burera","sector":"Cyeru","sector_id":"4404","label":"Cyeru Sector HQ","longitude":29.833963661000041,"latitude":-1.4971573069999522}},{"type":"Feature","id":1469631,"geometry":{"type":"Point","coordinates":[29.836814154,-1.46020602699997,0]},"properties":{"OBJECTID":1469631,"province":"Northern Province","district":"Burera","sector":"Rusarabuye","sector_id":"4416","label":"Rusarabuye Sector HQ","longitude":29.836814154000024,"latitude":-1.4602060269999697}},{"type":"Feature","id":1472797,"geometry":{"type":"Point","coordinates":[29.640571472,-1.50963035099994,0]},"properties":{"OBJECTID":1472797,"province":"Northern Province","district":"Musanze","sector":"Muhoza","sector_id":"4308","label":"Muhoza Sector HQ","longitude":29.640571472000033,"latitude":-1.5096303509999416}},{"type":"Feature","id":1476469,"geometry":{"type":"Point","coordinates":[29.8844715610001,-1.46491387799995,0]},"properties":{"OBJECTID":1476469,"province":"Northern Province","district":"Burera","sector":"Kivuye","sector_id":"4411","label":"Kivuye Sector HQ","longitude":29.884471561000055,"latitude":-1.4649138779999475}},{"type":"Feature","id":1477852,"geometry":{"type":"Point","coordinates":[30.011699267,-1.61000439799994,0]},"properties":{"OBJECTID":1477852,"province":"Northern Province","district":"Gicumbi","sector":"Nyankenke","sector_id":"4514","label":"Nyankenke Sector HQ","longitude":30.01169926700004,"latitude":-1.6100043979999441}},{"type":"Feature","id":1482769,"geometry":{"type":"Point","coordinates":[30.2280273870001,-1.69844318299994,0]},"properties":{"OBJECTID":1482769,"province":"Northern Province","district":"Gicumbi","sector":"Muko","sector_id":"4511","label":"Muko Sector HQ","longitude":30.228027387000054,"latitude":-1.698443182999938}},{"type":"Feature","id":1497718,"geometry":{"type":"Point","coordinates":[29.9784136170001,-1.61313179799993,0]},"properties":{"OBJECTID":1497718,"province":"Northern Province","district":"Gicumbi","sector":"Miyove","sector_id":"4509","label":"Miyove Sector HQ","longitude":29.978413617000058,"latitude":-1.6131317979999267}},{"type":"Feature","id":1502480,"geometry":{"type":"Point","coordinates":[29.6149213670001,-1.46331325699992,0]},"properties":{"OBJECTID":1502480,"province":"Northern Province","district":"Musanze","sector":"Nyange","sector_id":"4312","label":"Nyange Sector HQ","longitude":29.614921367000079,"latitude":-1.4633132569999248}},{"type":"Feature","id":1524805,"geometry":{"type":"Point","coordinates":[29.6328146280001,-1.53906852299997,0]},"properties":{"OBJECTID":1524805,"province":"Northern Province","district":"Musanze","sector":"Muko","sector_id":"4309","label":"Muko Sector HQ","longitude":29.632814628000062,"latitude":-1.539068522999969}},{"type":"Feature","id":1525329,"geometry":{"type":"Point","coordinates":[29.744284328,-1.72014010299995,0]},"properties":{"OBJECTID":1525329,"province":"Northern Province","district":"Gakenke","sector":"Mataba","sector_id":"4210","label":"Mataba Sector HQ","longitude":29.744284328000049,"latitude":-1.7201401029999488}},{"type":"Feature","id":1530247,"geometry":{"type":"Point","coordinates":[29.6742803390001,-1.55007914399994,0]},"properties":{"OBJECTID":1530247,"province":"Northern Province","district":"Musanze","sector":"Rwaza","sector_id":"4314","label":"Rwaza Sector HQ","longitude":29.674280339000063,"latitude":-1.5500791439999375}},{"type":"Feature","id":1530767,"geometry":{"type":"Point","coordinates":[30.0916228030001,-1.62067519099998,0]},"properties":{"OBJECTID":1530767,"province":"Northern Province","district":"Gicumbi","sector":"Kageyo","sector_id":"4506","label":"Kageyo Sector HQ","longitude":30.091622803000064,"latitude":-1.6206751909999753}},{"type":"Feature","id":1541909,"geometry":{"type":"Point","coordinates":[29.6392288110001,-1.56886801799993,0]},"properties":{"OBJECTID":1541909,"province":"Northern Province","district":"Musanze","sector":"Nkotsi","sector_id":"4311","label":"Nkotsi Sector HQ","longitude":29.639228811000066,"latitude":-1.5688680179999324}},{"type":"Feature","id":1548469,"geometry":{"type":"Point","coordinates":[30.097963539,-1.71327625899994,0]},"properties":{"OBJECTID":1548469,"province":"Northern Province","district":"Gicumbi","sector":"Mutete","sector_id":"4512","label":"Mutete Sector HQ","longitude":30.097963539000034,"latitude":-1.7132762589999402}},{"type":"Feature","id":1563367,"geometry":{"type":"Point","coordinates":[29.739421049,-1.46967106599993,0]},"properties":{"OBJECTID":1563367,"province":"Northern Province","district":"Burera","sector":"Kinoni","sector_id":"4409","label":"Kinoni Sector HQ","longitude":29.739421049000043,"latitude":-1.4696710659999326}},{"type":"Feature","id":1584547,"geometry":{"type":"Point","coordinates":[29.9382155060001,-1.62503996999993,0]},"properties":{"OBJECTID":1584547,"province":"Northern Province","district":"Rulindo","sector":"Cyungo","sector_id":"4106","label":"Cyungo Sector HQ","longitude":29.938215506000063,"latitude":-1.6250399699999321}},{"type":"Feature","id":1590116,"geometry":{"type":"Point","coordinates":[29.9483119940001,-1.62191160199995,0]},"properties":{"OBJECTID":1590116,"province":"Northern Province","district":"Rulindo","sector":"Rukozo","sector_id":"4114","label":"Rukozo Sector HQ","longitude":29.948311994000051,"latitude":-1.6219116019999547}},{"type":"Feature","id":1590174,"geometry":{"type":"Point","coordinates":[30.0276624300001,-1.62207484099997,0]},"properties":{"OBJECTID":1590174,"province":"Northern Province","district":"Rulindo","sector":"Kisaro","sector_id":"4108","label":"Kisaro Sector HQ","longitude":30.027662430000078,"latitude":-1.6220748409999715}},{"type":"Feature","id":1595760,"geometry":{"type":"Point","coordinates":[29.89021029,-1.81755691599994,0]},"properties":{"OBJECTID":1595760,"province":"Northern Province","district":"Gakenke","sector":"Muhondo","sector_id":"4213","label":"Muhondo Sector HQ","longitude":29.890210290000027,"latitude":-1.8175569159999441}},{"type":"Feature","id":1597825,"geometry":{"type":"Point","coordinates":[29.9949587130001,-1.76099317599994,0]},"properties":{"OBJECTID":1597825,"province":"Northern Province","district":"Rulindo","sector":"Cyinzuzi","sector_id":"4105","label":"Cyinzuzi Sector HQ","longitude":29.994958713000074,"latitude":-1.7609931759999427}},{"type":"Feature","id":1609099,"geometry":{"type":"Point","coordinates":[29.8612806690001,-1.49455511299993,0]},"properties":{"OBJECTID":1609099,"province":"Northern Province","district":"Burera","sector":"Rwerere","sector_id":"4417","label":"Rwerere Sector HQ","longitude":29.861280669000053,"latitude":-1.494555112999933}},{"type":"Feature","id":1612097,"geometry":{"type":"Point","coordinates":[29.7172518460001,-1.42918998299996,0]},"properties":{"OBJECTID":1612097,"province":"Northern Province","district":"Burera","sector":"Rugarama","sector_id":"4413","label":"Rugarama Sector HQ","longitude":29.717251846000067,"latitude":-1.4291899829999579}},{"type":"Feature","id":1622289,"geometry":{"type":"Point","coordinates":[30.134803037,-1.64570452499993,0]},"properties":{"OBJECTID":1622289,"province":"Northern Province","district":"Gicumbi","sector":"Rukomo","sector_id":"4516","label":"Rukomo Sector HQ","longitude":30.13480303700004,"latitude":-1.6457045249999283}},{"type":"Feature","id":1625342,"geometry":{"type":"Point","coordinates":[30.0421535410001,-1.50896332999997,0]},"properties":{"OBJECTID":1625342,"province":"Northern Province","district":"Gicumbi","sector":"Mukarange","sector_id":"4510","label":"Mukarange Sector HQ","longitude":30.042153541000062,"latitude":-1.5089633299999718}},{"type":"Feature","id":1641998,"geometry":{"type":"Point","coordinates":[29.918643779,-1.58622522099995,0]},"properties":{"OBJECTID":1641998,"province":"Northern Province","district":"Burera","sector":"Ruhunde","sector_id":"4415","label":"Ruhunde Sector HQ","longitude":29.918643779000035,"latitude":-1.5862252209999497}},{"type":"Feature","id":1644265,"geometry":{"type":"Point","coordinates":[29.9312813130001,-1.50999478999995,0]},"properties":{"OBJECTID":1644265,"province":"Northern Province","district":"Burera","sector":"Gatebe","sector_id":"4406","label":"Gatebe Sector HQ","longitude":29.931281313000056,"latitude":-1.5099947899999506}},{"type":"Feature","id":1654875,"geometry":{"type":"Point","coordinates":[29.8825877830001,-1.60296913399998,0]},"properties":{"OBJECTID":1654875,"province":"Northern Province","district":"Burera","sector":"Nemba","sector_id":"4412","label":"Nemba Sector HQ","longitude":29.882587783000076,"latitude":-1.6029691339999772}},{"type":"Feature","id":1661987,"geometry":{"type":"Point","coordinates":[29.784588909,-1.52380767199998,0]},"properties":{"OBJECTID":1661987,"province":"Northern Province","district":"Burera","sector":"Gitovu","sector_id":"4407","label":"Gitovu Sector HQ","longitude":29.784588909000036,"latitude":-1.5238076719999754}},{"type":"Feature","id":1664499,"geometry":{"type":"Point","coordinates":[29.960841551,-1.52536438199996,0]},"properties":{"OBJECTID":1664499,"province":"Northern Province","district":"Burera","sector":"Bungwe","sector_id":"4401","label":"Bungwe Sector HQ","longitude":29.960841551000044,"latitude":-1.5253643819999638}},{"type":"Feature","id":1672705,"geometry":{"type":"Point","coordinates":[30.0614507120001,-1.52750401399993,0]},"properties":{"OBJECTID":1672705,"province":"Northern Province","district":"Gicumbi","sector":"Shangasha","sector_id":"4521","label":"Shangasha Sector HQ","longitude":30.061450712000067,"latitude":-1.5275040139999305}},{"type":"Feature","id":1681466,"geometry":{"type":"Point","coordinates":[29.552916705,-1.50055922099995,0]},"properties":{"OBJECTID":1681466,"province":"Northern Province","district":"Musanze","sector":"Shingiro","sector_id":"4315","label":"Shingiro Sector HQ","longitude":29.55291670500003,"latitude":-1.5005592209999463}},{"type":"Feature","id":1682875,"geometry":{"type":"Point","coordinates":[29.782028847,-1.57773549399997,0]},"properties":{"OBJECTID":1682875,"province":"Northern Province","district":"Gakenke","sector":"Kamubuga","sector_id":"4207","label":"Kamubuga Sector HQ","longitude":29.782028847000049,"latitude":-1.5777354939999668}},{"type":"Feature","id":1725399,"geometry":{"type":"Point","coordinates":[29.942518523,-1.69776480099995,0]},"properties":{"OBJECTID":1725399,"province":"Northern Province","district":"Rulindo","sector":"Tumba","sector_id":"4117","label":"Tumba Sector HQ","longitude":29.942518523000047,"latitude":-1.6977648009999484}},{"type":"Feature","id":1735978,"geometry":{"type":"Point","coordinates":[29.7895294140001,-1.65135808199994,0]},"properties":{"OBJECTID":1735978,"province":"Northern Province","district":"Gakenke","sector":"Gakenke","sector_id":"4204","label":"Gakenke Sector HQ","longitude":29.789529414000071,"latitude":-1.6513580819999447}},{"type":"Feature","id":1736364,"geometry":{"type":"Point","coordinates":[29.915630047,-1.71108164299994,0]},"properties":{"OBJECTID":1736364,"province":"Northern Province","district":"Rulindo","sector":"Bushoki","sector_id":"4103","label":"Bushoki Sector HQ","longitude":29.915630047000036,"latitude":-1.7110816429999431}},{"type":"Feature","id":1750624,"geometry":{"type":"Point","coordinates":[30.0323528540001,-1.73566294699998,0]},"properties":{"OBJECTID":1750624,"province":"Northern Province","district":"Rulindo","sector":"Burega","sector_id":"4102","label":"Burega Sector HQ","longitude":30.032352854000067,"latitude":-1.7356629469999802}},{"type":"Feature","id":1766728,"geometry":{"type":"Point","coordinates":[29.9675012230001,-1.77049464699996,0]},"properties":{"OBJECTID":1766728,"province":"Northern Province","district":"Rulindo","sector":"Mbogo","sector_id":"4110","label":"Mbogo Sector HQ","longitude":29.967501223000056,"latitude":-1.7704946469999641}},{"type":"Feature","id":1775865,"geometry":{"type":"Point","coordinates":[30.095792556,-1.79071824899995,0]},"properties":{"OBJECTID":1775865,"province":"Northern Province","district":"Rulindo","sector":"Ntarabana","sector_id":"4113","label":"Ntarabana Sector HQ","longitude":30.095792556000049,"latitude":-1.7907182489999514}},{"type":"Feature","id":1783273,"geometry":{"type":"Point","coordinates":[30.004220891,-1.81368997799996,0]},"properties":{"OBJECTID":1783273,"province":"Northern Province","district":"Rulindo","sector":"Ngoma","sector_id":"4112","label":"Ngoma Sector HQ","longitude":30.004220891000045,"latitude":-1.8136899779999567}},{"type":"Feature","id":1785498,"geometry":{"type":"Point","coordinates":[30.060173336,-1.82017191599994,0]},"properties":{"OBJECTID":1785498,"province":"Northern Province","district":"Rulindo","sector":"Masoro","sector_id":"4109","label":"Masoro Sector HQ","longitude":30.060173336000048,"latitude":-1.8201719159999357}},{"type":"Feature","id":1793354,"geometry":{"type":"Point","coordinates":[29.6066867330001,-1.50708300399998,0]},"properties":{"OBJECTID":1793354,"province":"Northern Province","district":"Musanze","sector":"Kimonyi","sector_id":"4306","label":"Kimonyi Sector HQ","longitude":29.60668673300006,"latitude":-1.5070830039999805}},{"type":"Feature","id":1798988,"geometry":{"type":"Point","coordinates":[30.037292829,-1.42797308499996,0]},"properties":{"OBJECTID":1798988,"province":"Northern Province","district":"Gicumbi","sector":"Kaniga","sector_id":"4507","label":"Kaniga Sector HQ","longitude":30.037292829000023,"latitude":-1.4279730849999623}},{"type":"Feature","id":1807181,"geometry":{"type":"Point","coordinates":[30.173717287,-1.73103635199993,0]},"properties":{"OBJECTID":1807181,"province":"Northern Province","district":"Gicumbi","sector":"Rutare","sector_id":"4518","label":"Rutare Sector HQ","longitude":30.173717287000045,"latitude":-1.7310363519999328}},{"type":"Feature","id":1807942,"geometry":{"type":"Point","coordinates":[30.086565568,-1.44667704599993,0]},"properties":{"OBJECTID":1807942,"province":"Northern Province","district":"Gicumbi","sector":"Rushaki","sector_id":"4517","label":"Rushaki Sector HQ","longitude":30.086565568000026,"latitude":-1.4466770459999339}},{"type":"Feature","id":1816256,"geometry":{"type":"Point","coordinates":[29.9966436550001,-1.46194364799993,0]},"properties":{"OBJECTID":1816256,"province":"Northern Province","district":"Gicumbi","sector":"Rubaya","sector_id":"4515","label":"Rubaya Sector HQ","longitude":29.996643655000071,"latitude":-1.4619436479999308}},{"type":"Feature","id":1820480,"geometry":{"type":"Point","coordinates":[30.1856645610001,-1.75736484999993,0]},"properties":{"OBJECTID":1820480,"province":"Northern Province","district":"Gicumbi","sector":"Rwamiko","sector_id":"4520","label":"Rwamiko Sector HQ","longitude":30.185664561000067,"latitude":-1.7573648499999308}},{"type":"Feature","id":1836783,"geometry":{"type":"Point","coordinates":[30.2218582300001,-1.78737956199996,0]},"properties":{"OBJECTID":1836783,"province":"Northern Province","district":"Gicumbi","sector":"Bukure","sector_id":"4501","label":"Bukure Sector HQ","longitude":30.221858230000066,"latitude":-1.7873795619999555}},{"type":"Feature","id":1838908,"geometry":{"type":"Point","coordinates":[30.155295143,-1.56643055599994,0]},"properties":{"OBJECTID":1838908,"province":"Northern Province","district":"Gicumbi","sector":"Bwisige","sector_id":"4502","label":"Bwisige Sector HQ","longitude":30.155295143000046,"latitude":-1.5664305559999434}},{"type":"Feature","id":1844497,"geometry":{"type":"Point","coordinates":[30.0013890430001,-1.49933669599994,0]},"properties":{"OBJECTID":1844497,"province":"Northern Province","district":"Gicumbi","sector":"Cyumba","sector_id":"4504","label":"Cyumba Sector HQ","longitude":30.001389043000074,"latitude":-1.4993366959999435}},{"type":"Feature","id":1861430,"geometry":{"type":"Point","coordinates":[29.683259967,-1.48680702899998,0]},"properties":{"OBJECTID":1861430,"province":"Northern Province","district":"Musanze","sector":"Gacaca","sector_id":"4303","label":"Gacaca Sector HQ","longitude":29.683259967000026,"latitude":-1.4868070289999764}},{"type":"Feature","id":1865451,"geometry":{"type":"Point","coordinates":[29.6490324530001,-1.48860547499993,0]},"properties":{"OBJECTID":1865451,"province":"Northern Province","district":"Musanze","sector":"Cyuve","sector_id":"4302","label":"Cyuve Sector HQ","longitude":29.649032453000075,"latitude":-1.4886054749999289}},{"type":"Feature","id":1871269,"geometry":{"type":"Point","coordinates":[30.0513665,-1.58766915399997,0]},"properties":{"OBJECTID":1871269,"province":"Northern Province","district":"Gicumbi","sector":"Byumba","sector_id":"4503","label":"Byumba Sector HQ","longitude":30.051366500000029,"latitude":-1.5876691539999683}},{"type":"Feature","id":1897952,"geometry":{"type":"Point","coordinates":[29.5882565060001,-1.44675051999997,0]},"properties":{"OBJECTID":1897952,"province":"Northern Province","district":"Musanze","sector":"Kinigi","sector_id":"4307","label":"Kinigi Sector HQ","longitude":29.58825650600005,"latitude":-1.4467505199999664}},{"type":"Feature","id":1908219,"geometry":{"type":"Point","coordinates":[29.584587818,-2.46989182399994,0]},"properties":{"OBJECTID":1908219,"province":"Southern Province","district":"Nyamagabe","sector":"Gasaka","sector_id":"2503","label":"Gasaka Sector HQ","longitude":29.584587818000045,"latitude":-2.4698918239999443}},{"type":"Feature","id":1938585,"geometry":{"type":"Point","coordinates":[29.8437649300001,-2.13419963999996,0]},"properties":{"OBJECTID":1938585,"province":"Southern Province","district":"Ruhango","sector":"Mbuye","sector_id":"2606","label":"Mbuye Sector HQ","longitude":29.843764930000077,"latitude":-2.134199639999963}},{"type":"Feature","id":1944241,"geometry":{"type":"Point","coordinates":[29.747388164,-2.55068631199993,0]},"properties":{"OBJECTID":1944241,"province":"Southern Province","district":"Huye","sector":"Mbazi","sector_id":"2407","label":"Mbazi Sector HQ","longitude":29.747388164000029,"latitude":-2.5506863119999252}},{"type":"Feature","id":1979674,"geometry":{"type":"Point","coordinates":[29.5446726660001,-2.59420117999997,0]},"properties":{"OBJECTID":1979674,"province":"Southern Province","district":"Nyaruguru","sector":"Mata","sector_id":"2305","label":"Mata Sector HQ","longitude":29.544672666000054,"latitude":-2.5942011799999705}},{"type":"Feature","id":1989361,"geometry":{"type":"Point","coordinates":[29.7014762580001,-2.35136911199993,0]},"properties":{"OBJECTID":1989361,"province":"Southern Province","district":"Nyanza","sector":"Rwabicuma","sector_id":"2110","label":"Rwabicuma Sector HQ","longitude":29.701476258000071,"latitude":-2.3513691119999294}},{"type":"Feature","id":1997072,"geometry":{"type":"Point","coordinates":[29.736924715,-2.77847183599994,0]},"properties":{"OBJECTID":1997072,"province":"Southern Province","district":"Gisagara","sector":"Nyanza","sector_id":"2212","label":"Nyanza Sector HQ","longitude":29.736924715000043,"latitude":-2.7784718359999374}},{"type":"Feature","id":1998754,"geometry":{"type":"Point","coordinates":[29.768001139,-1.88105640399993,0]},"properties":{"OBJECTID":1998754,"province":"Southern Province","district":"Muhanga","sector":"Kiyumba","sector_id":"2704","label":"Kiyumba Sector HQ","longitude":29.768001139000035,"latitude":-1.8810564039999349}},{"type":"Feature","id":2003070,"geometry":{"type":"Point","coordinates":[29.4520089980001,-2.41606432299994,0]},"properties":{"OBJECTID":2003070,"province":"Southern Province","district":"Nyamagabe","sector":"Musebeya","sector_id":"2513","label":"Musebeya Sector HQ","longitude":29.452008998000053,"latitude":-2.4160643229999437}},{"type":"Feature","id":2003609,"geometry":{"type":"Point","coordinates":[29.914436154,-1.99390584499997,0]},"properties":{"OBJECTID":2003609,"province":"Southern Province","district":"Kamonyi","sector":"Gacurabwenge","sector_id":"2801","label":"Gacurabwenge Sector HQ","longitude":29.914436154000043,"latitude":-1.993905844999972}},{"type":"Feature","id":2009412,"geometry":{"type":"Point","coordinates":[29.5340970990001,-2.32190478399997,0]},"properties":{"OBJECTID":2009412,"province":"Southern Province","district":"Nyamagabe","sector":"Kaduha","sector_id":"2505","label":"Kaduha Sector HQ","longitude":29.534097099000064,"latitude":-2.3219047839999689}},{"type":"Feature","id":2023126,"geometry":{"type":"Point","coordinates":[29.690019342,-2.15541043399998,0]},"properties":{"OBJECTID":2023126,"province":"Southern Province","district":"Ruhango","sector":"Mwendo","sector_id":"2607","label":"Mwendo Sector HQ","longitude":29.690019342000028,"latitude":-2.1554104339999753}},{"type":"Feature","id":2024563,"geometry":{"type":"Point","coordinates":[29.448666786,-2.47247332199993,0]},"properties":{"OBJECTID":2024563,"province":"Southern Province","district":"Nyamagabe","sector":"Uwinkingi","sector_id":"2517","label":"Uwinkingi Sector HQ","longitude":29.448666786000047,"latitude":-2.472473321999928}},{"type":"Feature","id":2028927,"geometry":{"type":"Point","coordinates":[29.676582162,-2.08858162299993,0]},"properties":{"OBJECTID":2028927,"province":"Southern Province","district":"Muhanga","sector":"Nyarusange","sector_id":"2709","label":"Nyarusange Sector HQ","longitude":29.676582162000045,"latitude":-2.088581622999925}},{"type":"Feature","id":2055876,"geometry":{"type":"Point","coordinates":[29.8895977120001,-2.38684764699997,0]},"properties":{"OBJECTID":2055876,"province":"Southern Province","district":"Nyanza","sector":"Kibilizi","sector_id":"2104","label":"Kibilizi Sector HQ","longitude":29.889597712000068,"latitude":-2.3868476469999678}},{"type":"Feature","id":2059683,"geometry":{"type":"Point","coordinates":[29.7943644800001,-2.55051877599993,0]},"properties":{"OBJECTID":2059683,"province":"Southern Province","district":"Gisagara","sector":"Save","sector_id":"2213","label":"Save Sector HQ","longitude":29.79436448000007,"latitude":-2.550518775999933}},{"type":"Feature","id":2070559,"geometry":{"type":"Point","coordinates":[29.5373559540001,-2.78132131999996,0]},"properties":{"OBJECTID":2070559,"province":"Southern Province","district":"Nyaruguru","sector":"Busanze","sector_id":"2301","label":"Busanze Sector HQ","longitude":29.537355954000077,"latitude":-2.7813213199999609}},{"type":"Feature","id":2082215,"geometry":{"type":"Point","coordinates":[29.675469262,-2.51831509899995,0]},"properties":{"OBJECTID":2082215,"province":"Southern Province","district":"Huye","sector":"Simbi","sector_id":"2413","label":"Simbi Sector HQ","longitude":29.675469262000036,"latitude":-2.518315098999949}},{"type":"Feature","id":2084558,"geometry":{"type":"Point","coordinates":[29.7434501990001,-2.15842410099998,0]},"properties":{"OBJECTID":2084558,"province":"Southern Province","district":"Ruhango","sector":"Byimana","sector_id":"2602","label":"Byimana Sector HQ","longitude":29.743450199000051,"latitude":-2.15842410099998}},{"type":"Feature","id":2086139,"geometry":{"type":"Point","coordinates":[29.5728676640001,-2.28599261699998,0]},"properties":{"OBJECTID":2086139,"province":"Southern Province","district":"Nyamagabe","sector":"Musange","sector_id":"2512","label":"Musange Sector HQ","longitude":29.572867664000057,"latitude":-2.2859926169999767}},{"type":"Feature","id":2097882,"geometry":{"type":"Point","coordinates":[29.662112511,-2.34960933499997,0]},"properties":{"OBJECTID":2097882,"province":"Southern Province","district":"Nyanza","sector":"Nyagisozi","sector_id":"2109","label":"Nyagisozi Sector HQ","longitude":29.662112511000032,"latitude":-2.3496093349999683}},{"type":"Feature","id":2116905,"geometry":{"type":"Point","coordinates":[29.764279183,-1.81834210399995,0]},"properties":{"OBJECTID":2116905,"province":"Southern Province","district":"Muhanga","sector":"Rongi","sector_id":"2710","label":"Rongi Sector HQ","longitude":29.764279183000042,"latitude":-1.818342103999953}},{"type":"Feature","id":2119211,"geometry":{"type":"Point","coordinates":[29.444481082,-2.69460769599993,0]},"properties":{"OBJECTID":2119211,"province":"Southern Province","district":"Nyaruguru","sector":"Nyabimata","sector_id":"2310","label":"Nyabimata Sector HQ","longitude":29.444481082000038,"latitude":-2.6946076959999345}},{"type":"Feature","id":2132647,"geometry":{"type":"Point","coordinates":[29.596579788,-2.36932420399995,0]},"properties":{"OBJECTID":2132647,"province":"Southern Province","district":"Nyamagabe","sector":"Mbazi","sector_id":"2510","label":"Mbazi Sector HQ","longitude":29.596579788000042,"latitude":-2.3693242039999518}},{"type":"Feature","id":2136068,"geometry":{"type":"Point","coordinates":[29.902291545,-1.95387095399997,0]},"properties":{"OBJECTID":2136068,"province":"Southern Province","district":"Kamonyi","sector":"Rukoma","sector_id":"2811","label":"Rukoma Sector HQ","longitude":29.902291545000026,"latitude":-1.9538709539999672}},{"type":"Feature","id":2146749,"geometry":{"type":"Point","coordinates":[29.740061757,-2.63065713799995,0]},"properties":{"OBJECTID":2146749,"province":"Southern Province","district":"Huye","sector":"Tumba","sector_id":"2414","label":"Tumba Sector HQ","longitude":29.740061757000035,"latitude":-2.6306571379999468}},{"type":"Feature","id":2153912,"geometry":{"type":"Point","coordinates":[29.9038999110001,-2.06703731599993,0]},"properties":{"OBJECTID":2153912,"province":"Southern Province","district":"Kamonyi","sector":"Nyamiyaga","sector_id":"2808","label":"Nyamiyaga Sector HQ","longitude":29.903899911000053,"latitude":-2.0670373159999258}},{"type":"Feature","id":2164415,"geometry":{"type":"Point","coordinates":[29.914057198,-2.47529299499996,0]},"properties":{"OBJECTID":2164415,"province":"Southern Province","district":"Gisagara","sector":"Mamba","sector_id":"2206","label":"Mamba Sector HQ","longitude":29.914057198000023,"latitude":-2.4752929949999611}},{"type":"Feature","id":2174445,"geometry":{"type":"Point","coordinates":[29.6937717980001,-2.66563811599997,0]},"properties":{"OBJECTID":2174445,"province":"Southern Province","district":"Huye","sector":"Gishamvu","sector_id":"2401","label":"Gishamvu Sector HQ","longitude":29.693771798000057,"latitude":-2.6656381159999682}},{"type":"Feature","id":2175361,"geometry":{"type":"Point","coordinates":[29.835793342,-2.60117100499997,0]},"properties":{"OBJECTID":2175361,"province":"Southern Province","district":"Gisagara","sector":"Ndora","sector_id":"2211","label":"Ndora Sector HQ","longitude":29.835793342000045,"latitude":-2.6011710049999692}},{"type":"Feature","id":2176279,"geometry":{"type":"Point","coordinates":[29.898671495,-1.89780025799996,0]},"properties":{"OBJECTID":2176279,"province":"Southern Province","district":"Kamonyi","sector":"Ngamba","sector_id":"2807","label":"Ngamba Sector HQ","longitude":29.898671495000031,"latitude":-1.8978002579999611}},{"type":"Feature","id":2185659,"geometry":{"type":"Point","coordinates":[29.749807902,-2.35734807299997,0]},"properties":{"OBJECTID":2185659,"province":"Southern Province","district":"Nyanza","sector":"Busasamana","sector_id":"2101","label":"Busasamana Sector HQ","longitude":29.749807902000043,"latitude":-2.3573480729999687}},{"type":"Feature","id":2190915,"geometry":{"type":"Point","coordinates":[29.7154513,-2.45638129399993,0]},"properties":{"OBJECTID":2190915,"province":"Southern Province","district":"Huye","sector":"Rwaniro","sector_id":"2412","label":"Rwaniro Sector HQ","longitude":29.715451300000041,"latitude":-2.4563812939999252}},{"type":"Feature","id":2198602,"geometry":{"type":"Point","coordinates":[29.387393026,-2.38912278699996,0]},"properties":{"OBJECTID":2198602,"province":"Southern Province","district":"Nyamagabe","sector":"Gatare","sector_id":"2504","label":"Gatare Sector HQ","longitude":29.387393026000041,"latitude":-2.3891227869999625}},{"type":"Feature","id":2200623,"geometry":{"type":"Point","coordinates":[29.874491801,-2.58482547299997,0]},"properties":{"OBJECTID":2200623,"province":"Southern Province","district":"Gisagara","sector":"Gishubi","sector_id":"2202","label":"Gishubi Sector HQ","longitude":29.874491801000033,"latitude":-2.5848254729999667}},{"type":"Feature","id":2201258,"geometry":{"type":"Point","coordinates":[29.772058525,-2.68574848199995,0]},"properties":{"OBJECTID":2201258,"province":"Southern Province","district":"Gisagara","sector":"Kansi","sector_id":"2203","label":"Kansi Sector HQ","longitude":29.772058525000034,"latitude":-2.6857484819999513}},{"type":"Feature","id":2207330,"geometry":{"type":"Point","coordinates":[29.782277836,-2.64940098299996,0]},"properties":{"OBJECTID":2207330,"province":"Southern Province","district":"Gisagara","sector":"Kibirizi","sector_id":"2204","label":"Kibirizi Sector HQ","longitude":29.782277836000048,"latitude":-2.6494009829999641}},{"type":"Feature","id":2218727,"geometry":{"type":"Point","coordinates":[29.7982365990001,-2.28773230499996,0]},"properties":{"OBJECTID":2218727,"province":"Southern Province","district":"Nyanza","sector":"Kigoma","sector_id":"2105","label":"Kigoma Sector HQ","longitude":29.798236599000063,"latitude":-2.2877323049999632}},{"type":"Feature","id":2231416,"geometry":{"type":"Point","coordinates":[29.7147965,-2.69660541999997,0]},"properties":{"OBJECTID":2231416,"province":"Southern Province","district":"Nyaruguru","sector":"Ngera","sector_id":"2308","label":"Ngera Sector HQ","longitude":29.714796500000034,"latitude":-2.6966054199999689}},{"type":"Feature","id":2231900,"geometry":{"type":"Point","coordinates":[29.536306983,-2.71387308199996,0]},"properties":{"OBJECTID":2231900,"province":"Southern Province","district":"Nyaruguru","sector":"Munini","sector_id":"2307","label":"Munini Sector HQ","longitude":29.536306983000031,"latitude":-2.7138730819999637}},{"type":"Feature","id":2261214,"geometry":{"type":"Point","coordinates":[29.7501588870001,-2.64856898399995,0]},"properties":{"OBJECTID":2261214,"province":"Southern Province","district":"Huye","sector":"Mukura","sector_id":"2408","label":"Mukura Sector HQ","longitude":29.750158887000055,"latitude":-2.6485689839999509}},{"type":"Feature","id":2264798,"geometry":{"type":"Point","coordinates":[29.648598721,-2.47366414699997,0]},"properties":{"OBJECTID":2264798,"province":"Southern Province","district":"Huye","sector":"Kigoma","sector_id":"2404","label":"Kigoma Sector HQ","longitude":29.648598721000042,"latitude":-2.4736641469999654}},{"type":"Feature","id":2278369,"geometry":{"type":"Point","coordinates":[29.5239628590001,-2.40131074099997,0]},"properties":{"OBJECTID":2278369,"province":"Southern Province","district":"Nyamagabe","sector":"Kibumbwe","sector_id":"2508","label":"Kibumbwe Sector HQ","longitude":29.523962859000051,"latitude":-2.4013107409999748}},{"type":"Feature","id":2285745,"geometry":{"type":"Point","coordinates":[29.725995835,-2.07141677599998,0]},"properties":{"OBJECTID":2285745,"province":"Southern Province","district":"Muhanga","sector":"Muhanga","sector_id":"2705","label":"Muhanga Sector HQ","longitude":29.725995835000049,"latitude":-2.0714167759999782}},{"type":"Feature","id":2289116,"geometry":{"type":"Point","coordinates":[29.798210452,-1.98635065299993,0]},"properties":{"OBJECTID":2289116,"province":"Southern Province","district":"Kamonyi","sector":"Kayumbu","sector_id":"2804","label":"Kayumbu Sector HQ","longitude":29.798210452000035,"latitude":-1.9863506529999313}},{"type":"Feature","id":2306255,"geometry":{"type":"Point","coordinates":[29.8594034710001,-2.53583042199995,0]},"properties":{"OBJECTID":2306255,"province":"Southern Province","district":"Gisagara","sector":"Musha","sector_id":"2210","label":"Musha Sector HQ","longitude":29.859403471000064,"latitude":-2.5358304219999468}},{"type":"Feature","id":2315230,"geometry":{"type":"Point","coordinates":[29.689053485,-2.74447282799997,0]},"properties":{"OBJECTID":2315230,"province":"Southern Province","district":"Nyaruguru","sector":"Ngoma","sector_id":"2309","label":"Ngoma Sector HQ","longitude":29.689053485000045,"latitude":-2.7444728279999708}},{"type":"Feature","id":2348065,"geometry":{"type":"Point","coordinates":[29.559740629,-2.64968988199996,0]},"properties":{"OBJECTID":2348065,"province":"Southern Province","district":"Nyaruguru","sector":"Kibeho","sector_id":"2303","label":"Kibeho Sector HQ","longitude":29.559740629000032,"latitude":-2.6496898819999615}},{"type":"Feature","id":2351825,"geometry":{"type":"Point","coordinates":[29.5360028640001,-2.55893410199997,0]},"properties":{"OBJECTID":2351825,"province":"Southern Province","district":"Nyaruguru","sector":"Ruramba","sector_id":"2313","label":"Ruramba Sector HQ","longitude":29.536002864000068,"latitude":-2.5589341019999665}},{"type":"Feature","id":2354141,"geometry":{"type":"Point","coordinates":[29.6509064470001,-2.22478646299993,0]},"properties":{"OBJECTID":2354141,"province":"Southern Province","district":"Ruhango","sector":"Kabagali","sector_id":"2603","label":"Kabagali Sector HQ","longitude":29.650906447000068,"latitude":-2.22478646299993}},{"type":"Feature","id":2376406,"geometry":{"type":"Point","coordinates":[29.729341505,-2.47926924099994,0]},"properties":{"OBJECTID":2376406,"province":"Southern Province","district":"Huye","sector":"Ruhashya","sector_id":"2410","label":"Ruhashya Sector HQ","longitude":29.729341505000036,"latitude":-2.4792692409999404}},{"type":"Feature","id":2390482,"geometry":{"type":"Point","coordinates":[29.760918917,-2.30352238499995,0]},"properties":{"OBJECTID":2390482,"province":"Southern Province","district":"Nyanza","sector":"Mukingo","sector_id":"2106","label":"Mukingo Sector HQ","longitude":29.760918917000026,"latitude":-2.3035223849999511}},{"type":"Feature","id":2435302,"geometry":{"type":"Point","coordinates":[29.8308474560001,-2.08689162199994,0]},"properties":{"OBJECTID":2435302,"province":"Southern Province","district":"Kamonyi","sector":"Nyarubaka","sector_id":"2809","label":"Nyarubaka Sector HQ","longitude":29.830847456000072,"latitude":-2.0868916219999392}},{"type":"Feature","id":2440864,"geometry":{"type":"Point","coordinates":[29.713767493,-2.58425717999995,0]},"properties":{"OBJECTID":2440864,"province":"Southern Province","district":"Huye","sector":"Huye","sector_id":"2402","label":"Huye Sector HQ","longitude":29.713767493000034,"latitude":-2.5842571799999519}},{"type":"Feature","id":2442727,"geometry":{"type":"Point","coordinates":[29.785709862,-2.03453887299997,0]},"properties":{"OBJECTID":2442727,"province":"Southern Province","district":"Muhanga","sector":"Cyeza","sector_id":"2701","label":"Cyeza Sector HQ","longitude":29.785709862000033,"latitude":-2.034538872999974}},{"type":"Feature","id":2478069,"geometry":{"type":"Point","coordinates":[29.766294707,-2.07639993299995,0]},"properties":{"OBJECTID":2478069,"province":"Southern Province","district":"Muhanga","sector":"Nyamabuye","sector_id":"2708","label":"Nyamabuye Sector HQ","longitude":29.766294707000043,"latitude":-2.0763999329999479}},{"type":"Feature","id":2478185,"geometry":{"type":"Point","coordinates":[29.780549029,-2.08357014199993,0]},"properties":{"OBJECTID":2478185,"province":"Southern Province","district":"Muhanga","sector":"Shyogwe","sector_id":"2712","label":"Shyogwe Sector HQ","longitude":29.780549029000042,"latitude":-2.0835701419999282}},{"type":"Feature","id":2487082,"geometry":{"type":"Point","coordinates":[29.739528625,-2.60573711099994,0]},"properties":{"OBJECTID":2487082,"province":"Southern Province","district":"Huye","sector":"Ngoma","sector_id":"2409","label":"Ngoma Sector HQ","longitude":29.739528625000048,"latitude":-2.6057371109999394}},{"type":"Feature","id":2488478,"geometry":{"type":"Point","coordinates":[29.7337367690001,-1.94271852899993,0]},"properties":{"OBJECTID":2488478,"province":"Southern Province","district":"Muhanga","sector":"Kabacuzi","sector_id":"2702","label":"Kabacuzi Sector HQ","longitude":29.733736769000075,"latitude":-1.9427185289999329}},{"type":"Feature","id":2497959,"geometry":{"type":"Point","coordinates":[29.41131448,-2.42697932799996,0]},"properties":{"OBJECTID":2497959,"province":"Southern Province","district":"Nyamagabe","sector":"Buruhukiro","sector_id":"2501","label":"Buruhukiro Sector HQ","longitude":29.411314480000044,"latitude":-2.426979327999959}},{"type":"Feature","id":2514371,"geometry":{"type":"Point","coordinates":[29.9875930060001,-1.97134083699996,0]},"properties":{"OBJECTID":2514371,"province":"Southern Province","district":"Kamonyi","sector":"Runda","sector_id":"2812","label":"Runda Sector HQ","longitude":29.987593006000054,"latitude":-1.971340836999957}},{"type":"Feature","id":2577417,"geometry":{"type":"Point","coordinates":[29.844063679,-2.04730288299993,0]},"properties":{"OBJECTID":2577417,"province":"Southern Province","district":"Kamonyi","sector":"Musambira","sector_id":"2806","label":"Musambira Sector HQ","longitude":29.844063679000044,"latitude":-2.0473028829999294}},{"type":"Feature","id":2594434,"geometry":{"type":"Point","coordinates":[29.933650653,-1.99106100799997,0]},"properties":{"OBJECTID":2594434,"province":"Southern Province","district":"Kamonyi","sector":"Rugarika","sector_id":"2810","label":"Rugarika Sector HQ","longitude":29.933650653000029,"latitude":-1.9910610079999742}},{"type":"Feature","id":2636494,"geometry":{"type":"Point","coordinates":[29.633283798,-2.52326285099997,0]},"properties":{"OBJECTID":2636494,"province":"Southern Province","district":"Huye","sector":"Maraba","sector_id":"2406","label":"Maraba Sector HQ","longitude":29.633283798000036,"latitude":-2.52326285099997}},{"type":"Feature","id":2637981,"geometry":{"type":"Point","coordinates":[29.8779240040001,-2.35080432099994,0]},"properties":{"OBJECTID":2637981,"province":"Southern Province","district":"Nyanza","sector":"Muyira","sector_id":"2107","label":"Muyira Sector HQ","longitude":29.877924004000079,"latitude":-2.3508043209999414}},{"type":"Feature","id":2642707,"geometry":{"type":"Point","coordinates":[29.7731923210001,-2.43134091699994,0]},"properties":{"OBJECTID":2642707,"province":"Southern Province","district":"Huye","sector":"Rusatira","sector_id":"2411","label":"Rusatira Sector HQ","longitude":29.773192321000067,"latitude":-2.4313409169999431}},{"type":"Feature","id":2644096,"geometry":{"type":"Point","coordinates":[29.8587118500001,-2.73220615399993,0]},"properties":{"OBJECTID":2644096,"province":"Southern Province","district":"Gisagara","sector":"Mukindo","sector_id":"2209","label":"Mukindo Sector HQ","longitude":29.858711850000077,"latitude":-2.7322061539999254}},{"type":"Feature","id":2650610,"geometry":{"type":"Point","coordinates":[29.6206733610001,-2.66601972899997,0]},"properties":{"OBJECTID":2650610,"province":"Southern Province","district":"Nyaruguru","sector":"Rusenge","sector_id":"2314","label":"Rusenge Sector HQ","longitude":29.620673361000058,"latitude":-2.66601972899997}},{"type":"Feature","id":2660257,"geometry":{"type":"Point","coordinates":[29.6006393930001,-2.43331062599998,0]},"properties":{"OBJECTID":2660257,"province":"Southern Province","district":"Nyamagabe","sector":"Cyanika","sector_id":"2502","label":"Cyanika Sector HQ","longitude":29.600639393000051,"latitude":-2.4333106259999795}},{"type":"Feature","id":2678999,"geometry":{"type":"Point","coordinates":[29.8577625070001,-1.95182762999997,0]},"properties":{"OBJECTID":2678999,"province":"Southern Province","district":"Kamonyi","sector":"Karama","sector_id":"2802","label":"Karama Sector HQ","longitude":29.857762507000075,"latitude":-1.9518276299999684}},{"type":"Feature","id":2680638,"geometry":{"type":"Point","coordinates":[29.665615174,-2.20711686799996,0]},"properties":{"OBJECTID":2680638,"province":"Southern Province","district":"Ruhango","sector":"Kinihira","sector_id":"2605","label":"Kinihira Sector HQ","longitude":29.665615174000038,"latitude":-2.2071168679999573}},{"type":"Feature","id":2689952,"geometry":{"type":"Point","coordinates":[29.885161161,-2.42887251099995,0]},"properties":{"OBJECTID":2689952,"province":"Southern Province","district":"Nyanza","sector":"Ntyazo","sector_id":"2108","label":"Ntyazo Sector HQ","longitude":29.885161161000042,"latitude":-2.4288725109999518}},{"type":"Feature","id":2700676,"geometry":{"type":"Point","coordinates":[29.468268752,-2.66992490399997,0]},"properties":{"OBJECTID":2700676,"province":"Southern Province","district":"Nyaruguru","sector":"Muganza","sector_id":"2306","label":"Muganza Sector HQ","longitude":29.468268752000029,"latitude":-2.66992490399997}},{"type":"Feature","id":2712914,"geometry":{"type":"Point","coordinates":[29.7321700310001,-2.73117211399995,0]},"properties":{"OBJECTID":2712914,"province":"Southern Province","district":"Gisagara","sector":"Kigembe","sector_id":"2205","label":"Kigembe Sector HQ","longitude":29.732170031000067,"latitude":-2.7311721139999463}},{"type":"Feature","id":2714349,"geometry":{"type":"Point","coordinates":[29.401785644,-2.31148813699997,0]},"properties":{"OBJECTID":2714349,"province":"Southern Province","district":"Nyamagabe","sector":"Nkomane","sector_id":"2515","label":"Nkomane Sector HQ","longitude":29.401785644000029,"latitude":-2.3114881369999694}},{"type":"Feature","id":2725766,"geometry":{"type":"Point","coordinates":[29.6836830330001,-1.77414225499996,0]},"properties":{"OBJECTID":2725766,"province":"Southern Province","district":"Muhanga","sector":"Nyabinoni","sector_id":"2707","label":"Nyabinoni Sector HQ","longitude":29.683683033000079,"latitude":-1.7741422549999584}},{"type":"Feature","id":2733043,"geometry":{"type":"Point","coordinates":[29.4552162960001,-2.74933746699998,0]},"properties":{"OBJECTID":2733043,"province":"Southern Province","district":"Nyaruguru","sector":"Ruheru","sector_id":"2312","label":"Ruheru Sector HQ","longitude":29.45521629600006,"latitude":-2.7493374669999753}},{"type":"Feature","id":2747371,"geometry":{"type":"Point","coordinates":[29.6438059540001,-2.60811144899998,0]},"properties":{"OBJECTID":2747371,"province":"Southern Province","district":"Huye","sector":"Karama","sector_id":"2403","label":"Karama Sector HQ","longitude":29.643805954000072,"latitude":-2.6081114489999777}},{"type":"Feature","id":2750439,"geometry":{"type":"Point","coordinates":[29.6164197030001,-2.74453337999995,0]},"properties":{"OBJECTID":2750439,"province":"Southern Province","district":"Nyaruguru","sector":"Nyagisozi","sector_id":"2311","label":"Nyagisozi Sector HQ","longitude":29.616419703000076,"latitude":-2.7445333799999503}},{"type":"Feature","id":2765718,"geometry":{"type":"Point","coordinates":[29.8528283220001,-2.67342625299995,0]},"properties":{"OBJECTID":2765718,"province":"Southern Province","district":"Gisagara","sector":"Mugombwa","sector_id":"2208","label":"Mugombwa Sector HQ","longitude":29.85282832200005,"latitude":-2.6734262529999455}},{"type":"Feature","id":2781680,"geometry":{"type":"Point","coordinates":[29.649989761,-2.29922050099998,0]},"properties":{"OBJECTID":2781680,"province":"Southern Province","district":"Nyanza","sector":"Cyabakamyi","sector_id":"2103","label":"Cyabakamyi Sector HQ","longitude":29.649989761000029,"latitude":-2.2992205009999793}},{"type":"Feature","id":2785118,"geometry":{"type":"Point","coordinates":[29.906482345,-2.19885940999995,0]},"properties":{"OBJECTID":2785118,"province":"Southern Province","district":"Ruhango","sector":"Kinazi","sector_id":"2604","label":"Kinazi Sector HQ","longitude":29.906482345000029,"latitude":-2.1988594099999546}},{"type":"Feature","id":2793611,"geometry":{"type":"Point","coordinates":[29.794569118,-2.25959326099996,0]},"properties":{"OBJECTID":2793611,"province":"Southern Province","district":"Ruhango","sector":"Ruhango","sector_id":"2609","label":"Ruhango Sector HQ","longitude":29.794569118000027,"latitude":-2.2595932609999636}},{"type":"Feature","id":2794975,"geometry":{"type":"Point","coordinates":[29.4608863780001,-2.61523167999997,0]},"properties":{"OBJECTID":2794975,"province":"Southern Province","district":"Nyaruguru","sector":"Kivu","sector_id":"2304","label":"Kivu Sector HQ","longitude":29.460886378000055,"latitude":-2.6152316799999653}},{"type":"Feature","id":2796685,"geometry":{"type":"Point","coordinates":[29.445793473,-2.34899250299998,0]},"properties":{"OBJECTID":2796685,"province":"Southern Province","district":"Nyamagabe","sector":"Mushubi","sector_id":"2514","label":"Mushubi Sector HQ","longitude":29.445793473000037,"latitude":-2.3489925029999768}},{"type":"Feature","id":2799234,"geometry":{"type":"Point","coordinates":[29.42510129,-2.52232365699996,0]},"properties":{"OBJECTID":2799234,"province":"Southern Province","district":"Nyamagabe","sector":"Kitabi","sector_id":"2509","label":"Kitabi Sector HQ","longitude":29.425101290000043,"latitude":-2.5223236569999585}},{"type":"Feature","id":2805867,"geometry":{"type":"Point","coordinates":[29.8469322940001,-1.90890927699996,0]},"properties":{"OBJECTID":2805867,"province":"Southern Province","district":"Kamonyi","sector":"Kayenzi","sector_id":"2803","label":"Kayenzi Sector HQ","longitude":29.846932294000055,"latitude":-1.9089092769999638}},{"type":"Feature","id":2825357,"geometry":{"type":"Point","coordinates":[29.520787275,-2.47418927099994,0]},"properties":{"OBJECTID":2825357,"province":"Southern Province","district":"Nyamagabe","sector":"Kibirizi","sector_id":"2507","label":"Kibirizi Sector HQ","longitude":29.520787275000032,"latitude":-2.4741892709999433}},{"type":"Feature","id":2845605,"geometry":{"type":"Point","coordinates":[29.942744492,-2.10809892399993,0]},"properties":{"OBJECTID":2845605,"province":"Southern Province","district":"Kamonyi","sector":"Mugina","sector_id":"2805","label":"Mugina Sector HQ","longitude":29.942744492000031,"latitude":-2.1080989239999326}},{"type":"Feature","id":2858479,"geometry":{"type":"Point","coordinates":[29.6984010410001,-2.23384816699996,0]},"properties":{"OBJECTID":2858479,"province":"Southern Province","district":"Ruhango","sector":"Bweramana","sector_id":"2601","label":"Bweramana Sector HQ","longitude":29.698401041000068,"latitude":-2.2338481669999624}},{"type":"Feature","id":2882738,"geometry":{"type":"Point","coordinates":[29.857050201,-2.48398686599995,0]},"properties":{"OBJECTID":2882738,"province":"Southern Province","district":"Gisagara","sector":"Gikonko","sector_id":"2201","label":"Gikonko Sector HQ","longitude":29.85705020100005,"latitude":-2.4839868659999524}},{"type":"Feature","id":2885849,"geometry":{"type":"Point","coordinates":[29.6098731750001,-2.74473378199997,0]},"properties":{"OBJECTID":2885849,"province":"Southern Province","district":"Nyaruguru","sector":"Cyahinda","sector_id":"2302","label":"Cyahinda Sector HQ","longitude":29.609873175000075,"latitude":-2.7447337819999689}},{"type":"Feature","id":2898801,"geometry":{"type":"Point","coordinates":[29.931243583,-2.29004414699995,0]},"properties":{"OBJECTID":2898801,"province":"Southern Province","district":"Nyanza","sector":"Busoro","sector_id":"2102","label":"Busoro Sector HQ","longitude":29.931243583000025,"latitude":-2.2900441469999464}},{"type":"Feature","id":2900882,"geometry":{"type":"Point","coordinates":[29.684933506,-1.84452877899997,0]},"properties":{"OBJECTID":2900882,"province":"Southern Province","district":"Muhanga","sector":"Kibangu","sector_id":"2703","label":"Kibangu Sector HQ","longitude":29.68493350600005,"latitude":-1.8445287789999725}},{"type":"Feature","id":2914949,"geometry":{"type":"Point","coordinates":[29.5774474990001,-2.51710910999998,0]},"properties":{"OBJECTID":2914949,"province":"Southern Province","district":"Nyamagabe","sector":"Kamegeri","sector_id":"2506","label":"Kamegeri Sector HQ","longitude":29.577447499000073,"latitude":-2.5171091099999785}},{"type":"Feature","id":2919018,"geometry":{"type":"Point","coordinates":[29.675602682,-1.95139094599995,0]},"properties":{"OBJECTID":2919018,"province":"Southern Province","district":"Muhanga","sector":"Rugendabari","sector_id":"2711","label":"Rugendabari Sector HQ","longitude":29.675602682000033,"latitude":-1.9513909459999468}},{"type":"Feature","id":2928357,"geometry":{"type":"Point","coordinates":[29.4816755750001,-2.51431879599994,0]},"properties":{"OBJECTID":2928357,"province":"Southern Province","district":"Nyamagabe","sector":"Tare","sector_id":"2516","label":"Tare Sector HQ","longitude":29.481675575000054,"latitude":-2.5143187959999409}},{"type":"Feature","id":2929421,"geometry":{"type":"Point","coordinates":[29.509398274,-2.26565866899995,0]},"properties":{"OBJECTID":2929421,"province":"Southern Province","district":"Nyamagabe","sector":"Mugano","sector_id":"2511","label":"Mugano Sector HQ","longitude":29.509398274000034,"latitude":-2.2656586689999472}},{"type":"Feature","id":2939306,"geometry":{"type":"Point","coordinates":[29.7020125540001,-2.00181318299997,0]},"properties":{"OBJECTID":2939306,"province":"Southern Province","district":"Muhanga","sector":"Mushishiro","sector_id":"2706","label":"Mushishiro Sector HQ","longitude":29.702012554000078,"latitude":-2.0018131829999675}},{"type":"Feature","id":2940952,"geometry":{"type":"Point","coordinates":[29.8545852450001,-2.22219379899997,0]},"properties":{"OBJECTID":2940952,"province":"Southern Province","district":"Ruhango","sector":"Ntongwe","sector_id":"2608","label":"Ntongwe Sector HQ","longitude":29.854585245000067,"latitude":-2.2221937989999674}},{"type":"Feature","id":2950952,"geometry":{"type":"Point","coordinates":[29.787880376,-2.38864514699998,0]},"properties":{"OBJECTID":2950952,"province":"Southern Province","district":"Huye","sector":"Kinazi","sector_id":"2405","label":"Kinazi Sector HQ","longitude":29.787880376000032,"latitude":-2.388645146999977}},{"type":"Feature","id":2959732,"geometry":{"type":"Point","coordinates":[29.859664165,-2.64844313599997,0]},"properties":{"OBJECTID":2959732,"province":"Southern Province","district":"Gisagara","sector":"Muganza","sector_id":"2207","label":"Muganza Sector HQ","longitude":29.859664165000027,"latitude":-2.6484431359999689}},{"type":"Feature","id":2968265,"geometry":{"type":"Point","coordinates":[30.3793530990001,-2.27818827299996,0]},"properties":{"OBJECTID":2968265,"province":"Estern Province","district":"Ngoma","sector":"Jarama","sector_id":"5602","label":"Jarama Sector HQ","longitude":30.37935309900007,"latitude":-2.2781882729999552}},{"type":"Feature","id":2969174,"geometry":{"type":"Point","coordinates":[30.3245873820001,-2.17417325999998,0]},"properties":{"OBJECTID":2969174,"province":"Estern Province","district":"Ngoma","sector":"Rukumberi","sector_id":"5611","label":"Rukumberi Sector HQ","longitude":30.324587382000061,"latitude":-2.174173259999975}},{"type":"Feature","id":2977579,"geometry":{"type":"Point","coordinates":[30.322326468,-1.64239384199993,0]},"properties":{"OBJECTID":2977579,"province":"Estern Province","district":"Gatsibo","sector":"Gitoki","sector_id":"5303","label":"Gitoki Sector HQ","longitude":30.322326468000028,"latitude":-1.6423938419999331}},{"type":"Feature","id":2981133,"geometry":{"type":"Point","coordinates":[30.488537733,-2.27226528399996,0]},"properties":{"OBJECTID":2981133,"province":"Estern Province","district":"Ngoma","sector":"Mutenderi","sector_id":"5608","label":"Mutenderi Sector HQ","longitude":30.488537733000044,"latitude":-2.2722652839999569}},{"type":"Feature","id":2989713,"geometry":{"type":"Point","coordinates":[30.5052623490001,-1.79975904799994,0]},"properties":{"OBJECTID":2989713,"province":"Estern Province","district":"Kayonza","sector":"Rukara","sector_id":"5410","label":"Rukara Sector HQ","longitude":30.505262349000077,"latitude":-1.7997590479999417}},{"type":"Feature","id":2999647,"geometry":{"type":"Point","coordinates":[30.416011434,-1.80092259799994,0]},"properties":{"OBJECTID":2999647,"province":"Estern Province","district":"Gatsibo","sector":"Kiramuruzi","sector_id":"5306","label":"Kiramuruzi Sector HQ","longitude":30.41601143400004,"latitude":-1.8009225979999428}},{"type":"Feature","id":3000767,"geometry":{"type":"Point","coordinates":[30.777707524,-2.16968662199997,0]},"properties":{"OBJECTID":3000767,"province":"Estern Province","district":"Kirehe","sector":"Nyarubuye","sector_id":"5512","label":"Nyarubuye Sector HQ","longitude":30.77770752400005,"latitude":-2.169686621999972}},{"type":"Feature","id":3001500,"geometry":{"type":"Point","coordinates":[30.2650866750001,-1.72991576299995,0]},"properties":{"OBJECTID":3001500,"province":"Estern Province","district":"Gatsibo","sector":"Muhura","sector_id":"5308","label":"Muhura Sector HQ","longitude":30.265086675000077,"latitude":-1.7299157629999513}},{"type":"Feature","id":3028530,"geometry":{"type":"Point","coordinates":[30.007174569,-2.27649075199997,0]},"properties":{"OBJECTID":3028530,"province":"Estern Province","district":"Bugesera","sector":"Shyara","sector_id":"5715","label":"Shyara Sector HQ","longitude":30.007174569000028,"latitude":-2.2764907519999724}},{"type":"Feature","id":3031807,"geometry":{"type":"Point","coordinates":[30.6086761280001,-1.97009158199995,0]},"properties":{"OBJECTID":3031807,"province":"Estern Province","district":"Kayonza","sector":"Rwinkwavu","sector_id":"5412","label":"Rwinkwavu Sector HQ","longitude":30.60867612800007,"latitude":-1.9700915819999523}},{"type":"Feature","id":3071589,"geometry":{"type":"Point","coordinates":[30.804860488,-2.25155036399997,0]},"properties":{"OBJECTID":3071589,"province":"Estern Province","district":"Kirehe","sector":"Mahama","sector_id":"5506","label":"Mahama Sector HQ","longitude":30.804860488000031,"latitude":-2.2515503639999679}},{"type":"Feature","id":3077049,"geometry":{"type":"Point","coordinates":[30.3919114030001,-1.62294498899996,0]},"properties":{"OBJECTID":3077049,"province":"Estern Province","district":"Gatsibo","sector":"Kabarore","sector_id":"5304","label":"Kabarore Sector HQ","longitude":30.391911403000051,"latitude":-1.6229449889999614}},{"type":"Feature","id":3082189,"geometry":{"type":"Point","coordinates":[30.0585618760001,-2.31167981899995,0]},"properties":{"OBJECTID":3082189,"province":"Estern Province","district":"Bugesera","sector":"Ruhuha","sector_id":"5713","label":"Ruhuha Sector HQ","longitude":30.058561876000056,"latitude":-2.3116798189999486}},{"type":"Feature","id":3087340,"geometry":{"type":"Point","coordinates":[30.2519614600001,-1.44578970399994,0]},"properties":{"OBJECTID":3087340,"province":"Estern Province","district":"Nyagatare","sector":"Mimuri","sector_id":"5207","label":"Mimuri Sector HQ","longitude":30.251961460000075,"latitude":-1.4457897039999352}},{"type":"Feature","id":3094442,"geometry":{"type":"Point","coordinates":[30.295491871,-1.80677240299997,0]},"properties":{"OBJECTID":3094442,"province":"Estern Province","district":"Gatsibo","sector":"Gasange","sector_id":"5301","label":"Gasange Sector HQ","longitude":30.295491871000024,"latitude":-1.8067724029999681}},{"type":"Feature","id":3114300,"geometry":{"type":"Point","coordinates":[30.5877131600001,-2.20179008599996,0]},"properties":{"OBJECTID":3114300,"province":"Estern Province","district":"Ngoma","sector":"Murama","sector_id":"5607","label":"Murama Sector HQ","longitude":30.587713160000078,"latitude":-2.20179008599996}},{"type":"Feature","id":3127825,"geometry":{"type":"Point","coordinates":[30.424341661,-2.13473110499996,0]},"properties":{"OBJECTID":3127825,"province":"Estern Province","district":"Ngoma","sector":"Zaza","sector_id":"5614","label":"Zaza Sector HQ","longitude":30.424341661000028,"latitude":-2.1347311049999576}},{"type":"Feature","id":3131008,"geometry":{"type":"Point","coordinates":[30.4628354060001,-2.02489501599996,0]},"properties":{"OBJECTID":3131008,"province":"Estern Province","district":"Rwamagana","sector":"Munyaga","sector_id":"5107","label":"Munyaga Sector HQ","longitude":30.462835406000067,"latitude":-2.0248950159999595}},{"type":"Feature","id":3154428,"geometry":{"type":"Point","coordinates":[30.335133249,-1.28476712099996,0]},"properties":{"OBJECTID":3154428,"province":"Estern Province","district":"Nyagatare","sector":"Nyagatare","sector_id":"5210","label":"Nyagatare Sector HQ","longitude":30.335133249000023,"latitude":-1.2847671209999589}},{"type":"Feature","id":3175906,"geometry":{"type":"Point","coordinates":[30.2595094280001,-2.30507959099998,0]},"properties":{"OBJECTID":3175906,"province":"Estern Province","district":"Bugesera","sector":"Rweru","sector_id":"5714","label":"Rweru Sector HQ","longitude":30.259509428000058,"latitude":-2.3050795909999806}},{"type":"Feature","id":3204873,"geometry":{"type":"Point","coordinates":[30.2812311160001,-1.68849898399998,0]},"properties":{"OBJECTID":3204873,"province":"Estern Province","district":"Gatsibo","sector":"Kageyo","sector_id":"5305","label":"Kageyo Sector HQ","longitude":30.281231116000072,"latitude":-1.6884989839999776}},{"type":"Feature","id":3216002,"geometry":{"type":"Point","coordinates":[30.322112442,-1.96776734899993,0]},"properties":{"OBJECTID":3216002,"province":"Estern Province","district":"Rwamagana","sector":"Gahengeri","sector_id":"5102","label":"Gahengeri Sector HQ","longitude":30.322112442000048,"latitude":-1.9677673489999279}},{"type":"Feature","id":3218844,"geometry":{"type":"Point","coordinates":[30.255671411,-1.97425128399993,0]},"properties":{"OBJECTID":3218844,"province":"Estern Province","district":"Rwamagana","sector":"Muyumbu","sector_id":"5110","label":"Muyumbu Sector HQ","longitude":30.255671411000037,"latitude":-1.9742512839999335}},{"type":"Feature","id":3224455,"geometry":{"type":"Point","coordinates":[30.258311663,-1.39028029799994,0]},"properties":{"OBJECTID":3224455,"province":"Estern Province","district":"Nyagatare","sector":"Rukomo","sector_id":"5211","label":"Rukomo Sector HQ","longitude":30.258311663000029,"latitude":-1.3902802979999365}},{"type":"Feature","id":3232009,"geometry":{"type":"Point","coordinates":[30.5076842730001,-1.84781163299994,0]},"properties":{"OBJECTID":3232009,"province":"Estern Province","district":"Kayonza","sector":"Gahini","sector_id":"5401","label":"Gahini Sector HQ","longitude":30.507684273000052,"latitude":-1.8478116329999352}},{"type":"Feature","id":3278420,"geometry":{"type":"Point","coordinates":[30.6255932190001,-2.01550145999994,0]},"properties":{"OBJECTID":3278420,"province":"Estern Province","district":"Kayonza","sector":"Murama","sector_id":"5405","label":"Murama Sector HQ","longitude":30.625593219000052,"latitude":-2.015501459999939}},{"type":"Feature","id":3292891,"geometry":{"type":"Point","coordinates":[30.4496036780001,-1.89045999699994,0]},"properties":{"OBJECTID":3292891,"province":"Estern Province","district":"Rwamagana","sector":"Muhazi","sector_id":"5106","label":"Muhazi Sector HQ","longitude":30.449603678000074,"latitude":-1.8904599969999367}},{"type":"Feature","id":3303102,"geometry":{"type":"Point","coordinates":[30.555873509,-2.08232041699995,0]},"properties":{"OBJECTID":3303102,"province":"Estern Province","district":"Ngoma","sector":"Remera","sector_id":"5609","label":"Remera Sector HQ","longitude":30.555873509000037,"latitude":-2.0823204169999485}},{"type":"Feature","id":3305653,"geometry":{"type":"Point","coordinates":[30.227521025,-2.16209957699994,0]},"properties":{"OBJECTID":3305653,"province":"Estern Province","district":"Bugesera","sector":"Rilima","sector_id":"5712","label":"Rilima Sector HQ","longitude":30.227521025000044,"latitude":-2.1620995769999354}},{"type":"Feature","id":3305808,"geometry":{"type":"Point","coordinates":[30.53691861,-2.17994117299997,0]},"properties":{"OBJECTID":3305808,"province":"Estern Province","district":"Ngoma","sector":"Kibungo","sector_id":"5605","label":"Kibungo Sector HQ","longitude":30.536918610000043,"latitude":-2.1799411729999747}},{"type":"Feature","id":3309669,"geometry":{"type":"Point","coordinates":[30.1897003290001,-2.10149886999994,0]},"properties":{"OBJECTID":3309669,"province":"Estern Province","district":"Bugesera","sector":"Juru","sector_id":"5702","label":"Juru Sector HQ","longitude":30.189700329000061,"latitude":-2.1014988699999435}},{"type":"Feature","id":3309810,"geometry":{"type":"Point","coordinates":[30.845660583,-2.08608845499998,0]},"properties":{"OBJECTID":3309810,"province":"Estern Province","district":"Kirehe","sector":"Mpanga","sector_id":"5507","label":"Mpanga Sector HQ","longitude":30.84566058300004,"latitude":-2.086088454999981}},{"type":"Feature","id":3310316,"geometry":{"type":"Point","coordinates":[30.371020742,-1.95279702199997,0]},"properties":{"OBJECTID":3310316,"province":"Estern Province","district":"Rwamagana","sector":"Mwulire","sector_id":"5111","label":"Mwulire Sector HQ","longitude":30.371020742000042,"latitude":-1.9527970219999702}},{"type":"Feature","id":3322643,"geometry":{"type":"Point","coordinates":[30.4734261,-2.17033689499993,0]},"properties":{"OBJECTID":3322643,"province":"Estern Province","district":"Ngoma","sector":"Gashanda","sector_id":"5601","label":"Gashanda Sector HQ","longitude":30.47342610000004,"latitude":-2.1703368949999344}},{"type":"Feature","id":3328312,"geometry":{"type":"Point","coordinates":[30.6292070580001,-2.33169348499996,0]},"properties":{"OBJECTID":3328312,"province":"Estern Province","district":"Kirehe","sector":"Musaza","sector_id":"5508","label":"Musaza Sector HQ","longitude":30.629207058000077,"latitude":-2.3316934849999598}},{"type":"Feature","id":3335513,"geometry":{"type":"Point","coordinates":[30.219032499,-1.52254201899996,0]},"properties":{"OBJECTID":3335513,"province":"Estern Province","district":"Gatsibo","sector":"Nyagihanga","sector_id":"5311","label":"Nyagihanga Sector HQ","longitude":30.219032499000036,"latitude":-1.5225420189999568}},{"type":"Feature","id":3357826,"geometry":{"type":"Point","coordinates":[30.512262978,-1.94021087999994,0]},"properties":{"OBJECTID":3357826,"province":"Estern Province","district":"Kayonza","sector":"Nyamirama","sector_id":"5409","label":"Nyamirama Sector HQ","longitude":30.512262978000024,"latitude":-1.9402108799999382}},{"type":"Feature","id":3369000,"geometry":{"type":"Point","coordinates":[30.299957611,-1.21830603299998,0]},"properties":{"OBJECTID":3369000,"province":"Estern Province","district":"Nyagatare","sector":"Rwempasha","sector_id":"5212","label":"Rwempasha Sector HQ","longitude":30.299957611000025,"latitude":-1.2183060329999762}},{"type":"Feature","id":3401464,"geometry":{"type":"Point","coordinates":[30.34054868,-2.02627735899995,0]},"properties":{"OBJECTID":3401464,"province":"Estern Province","district":"Rwamagana","sector":"Nzige","sector_id":"5113","label":"Nzige Sector HQ","longitude":30.34054868000004,"latitude":-2.0262773589999483}},{"type":"Feature","id":3419758,"geometry":{"type":"Point","coordinates":[30.515596316,-2.18363524099993,0]},"properties":{"OBJECTID":3419758,"province":"Estern Province","district":"Ngoma","sector":"Kazo","sector_id":"5604","label":"Kazo Sector HQ","longitude":30.515596316000028,"latitude":-2.1836352409999336}},{"type":"Feature","id":3438626,"geometry":{"type":"Point","coordinates":[30.3897983800001,-1.42900857699993,0]},"properties":{"OBJECTID":3438626,"province":"Estern Province","district":"Nyagatare","sector":"Karangazi","sector_id":"5203","label":"Karangazi Sector HQ","longitude":30.389798380000059,"latitude":-1.4290085769999337}},{"type":"Feature","id":3442560,"geometry":{"type":"Point","coordinates":[30.520658742,-2.15767806899993,0]},"properties":{"OBJECTID":3442560,"province":"Estern Province","district":"Ngoma","sector":"Rurenge","sector_id":"5612","label":"Rurenge Sector HQ","longitude":30.520658742000023,"latitude":-2.1576780689999282}},{"type":"Feature","id":3452685,"geometry":{"type":"Point","coordinates":[30.504230631,-1.98244700599997,0]},"properties":{"OBJECTID":3452685,"province":"Estern Province","district":"Kayonza","sector":"Ruramira","sector_id":"5411","label":"Ruramira Sector HQ","longitude":30.504230631000041,"latitude":-1.9824470059999726}},{"type":"Feature","id":3454698,"geometry":{"type":"Point","coordinates":[30.7133914460001,-2.27648507799995,0]},"properties":{"OBJECTID":3454698,"province":"Estern Province","district":"Kirehe","sector":"Kigina","sector_id":"5504","label":"Kigina Sector HQ","longitude":30.71339144600006,"latitude":-2.2764850779999506}},{"type":"Feature","id":3484087,"geometry":{"type":"Point","coordinates":[30.25190603,-1.29150857099995,0]},"properties":{"OBJECTID":3484087,"province":"Estern Province","district":"Nyagatare","sector":"Tabagwe","sector_id":"5214","label":"Tabagwe Sector HQ","longitude":30.251906030000043,"latitude":-1.2915085709999516}},{"type":"Feature","id":3487233,"geometry":{"type":"Point","coordinates":[30.692717191,-2.32652279399997,0]},"properties":{"OBJECTID":3487233,"province":"Estern Province","district":"Kirehe","sector":"Kigarama","sector_id":"5503","label":"Kigarama Sector HQ","longitude":30.692717191000042,"latitude":-2.3265227939999704}},{"type":"Feature","id":3492803,"geometry":{"type":"Point","coordinates":[30.240523667,-1.54480956399993,0]},"properties":{"OBJECTID":3492803,"province":"Estern Province","district":"Gatsibo","sector":"Ngarama","sector_id":"5310","label":"Ngarama Sector HQ","longitude":30.240523667000048,"latitude":-1.5448095639999337}},{"type":"Feature","id":3494982,"geometry":{"type":"Point","coordinates":[30.432064607,-1.94681946599997,0]},"properties":{"OBJECTID":3494982,"province":"Estern Province","district":"Rwamagana","sector":"Kigabiro","sector_id":"5105","label":"Kigabiro Sector HQ","longitude":30.432064607000029,"latitude":-1.9468194659999654}},{"type":"Feature","id":3502330,"geometry":{"type":"Point","coordinates":[30.4245015170001,-1.12438838999998,0]},"properties":{"OBJECTID":3502330,"province":"Estern Province","district":"Nyagatare","sector":"Matimba","sector_id":"5206","label":"Matimba Sector HQ","longitude":30.424501517000067,"latitude":-1.1243883899999787}},{"type":"Feature","id":3515861,"geometry":{"type":"Point","coordinates":[30.1223487620001,-2.19660377199995,0]},"properties":{"OBJECTID":3515861,"province":"Estern Province","district":"Bugesera","sector":"Mayange","sector_id":"5705","label":"Mayange Sector HQ","longitude":30.122348762000058,"latitude":-2.1966037719999463}},{"type":"Feature","id":3572029,"geometry":{"type":"Point","coordinates":[30.1463861570001,-2.08036639499994,0]},"properties":{"OBJECTID":3572029,"province":"Estern Province","district":"Bugesera","sector":"Mwogo","sector_id":"5707","label":"Mwogo Sector HQ","longitude":30.146386157000052,"latitude":-2.0803663949999418}},{"type":"Feature","id":3587488,"geometry":{"type":"Point","coordinates":[30.4031152970001,-2.12261381399998,0]},"properties":{"OBJECTID":3587488,"province":"Estern Province","district":"Ngoma","sector":"Mugesera","sector_id":"5606","label":"Mugesera Sector HQ","longitude":30.403115297000056,"latitude":-2.1226138139999762}},{"type":"Feature","id":3592498,"geometry":{"type":"Point","coordinates":[30.576770723,-1.88078432899994,0]},"properties":{"OBJECTID":3592498,"province":"Estern Province","district":"Kayonza","sector":"Mwiri","sector_id":"5407","label":"Mwiri Sector HQ","longitude":30.576770723000038,"latitude":-1.8807843289999369}},{"type":"Feature","id":3592616,"geometry":{"type":"Point","coordinates":[30.2412796840001,-2.20669462999996,0]},"properties":{"OBJECTID":3592616,"province":"Estern Province","district":"Bugesera","sector":"Gashora","sector_id":"5701","label":"Gashora Sector HQ","longitude":30.241279684000062,"latitude":-2.2066946299999586}},{"type":"Feature","id":3592961,"geometry":{"type":"Point","coordinates":[30.39662473,-2.03785105399993,0]},"properties":{"OBJECTID":3592961,"province":"Estern Province","district":"Rwamagana","sector":"Rubona","sector_id":"5114","label":"Rubona Sector HQ","longitude":30.396624730000042,"latitude":-2.0378510539999297}},{"type":"Feature","id":3601679,"geometry":{"type":"Point","coordinates":[30.332406023,-1.93148963999994,0]},"properties":{"OBJECTID":3601679,"province":"Estern Province","district":"Rwamagana","sector":"Musha","sector_id":"5109","label":"Musha Sector HQ","longitude":30.332406023000033,"latitude":-1.9314896399999384}},{"type":"Feature","id":3603699,"geometry":{"type":"Point","coordinates":[30.408368593,-1.69028376499995,0]},"properties":{"OBJECTID":3603699,"province":"Estern Province","district":"Gatsibo","sector":"Rugarama","sector_id":"5313","label":"Rugarama Sector HQ","longitude":30.408368593000034,"latitude":-1.6902837649999469}},{"type":"Feature","id":3613148,"geometry":{"type":"Point","coordinates":[30.13313312,-2.37695115799994,0]},"properties":{"OBJECTID":3613148,"province":"Estern Province","district":"Bugesera","sector":"Kamabuye","sector_id":"5703","label":"Kamabuye Sector HQ","longitude":30.133133120000025,"latitude":-2.3769511579999403}},{"type":"Feature","id":3627653,"geometry":{"type":"Point","coordinates":[30.6541782310001,-2.26504022299997,0]},"properties":{"OBJECTID":3627653,"province":"Estern Province","district":"Kirehe","sector":"Kirehe","sector_id":"5505","label":"Kirehe Sector HQ","longitude":30.65417823100006,"latitude":-2.2650402229999713}},{"type":"Feature","id":3632247,"geometry":{"type":"Point","coordinates":[30.6918770350001,-2.10406338199994,0]},"properties":{"OBJECTID":3632247,"province":"Estern Province","district":"Kirehe","sector":"Nasho","sector_id":"5510","label":"Nasho Sector HQ","longitude":30.691877035000061,"latitude":-2.1040633819999357}},{"type":"Feature","id":3637949,"geometry":{"type":"Point","coordinates":[30.294407139,-1.87189131599996,0]},"properties":{"OBJECTID":3637949,"province":"Estern Province","district":"Rwamagana","sector":"Fumbwe","sector_id":"5101","label":"Fumbwe Sector HQ","longitude":30.294407139000043,"latitude":-1.8718913159999602}},{"type":"Feature","id":3640381,"geometry":{"type":"Point","coordinates":[30.5462802920001,-1.70483293099994,0]},"properties":{"OBJECTID":3640381,"province":"Estern Province","district":"Kayonza","sector":"Murundi","sector_id":"5406","label":"Murundi Sector HQ","longitude":30.546280292000063,"latitude":-1.7048329309999417}},{"type":"Feature","id":3641485,"geometry":{"type":"Point","coordinates":[30.3904146030001,-2.22499505099995,0]},"properties":{"OBJECTID":3641485,"province":"Estern Province","district":"Ngoma","sector":"Sake","sector_id":"5613","label":"Sake Sector HQ","longitude":30.390414603000067,"latitude":-2.2249950509999508}},{"type":"Feature","id":3643296,"geometry":{"type":"Point","coordinates":[30.3088888680001,-2.08281498099996,0]},"properties":{"OBJECTID":3643296,"province":"Estern Province","district":"Rwamagana","sector":"Karenge","sector_id":"5104","label":"Karenge Sector HQ","longitude":30.308888868000054,"latitude":-2.0828149809999559}},{"type":"Feature","id":3656420,"geometry":{"type":"Point","coordinates":[30.209318254,-1.42489078599993,0]},"properties":{"OBJECTID":3656420,"province":"Estern Province","district":"Nyagatare","sector":"Mukama","sector_id":"5208","label":"Mukama Sector HQ","longitude":30.209318254000038,"latitude":-1.4248907859999349}},{"type":"Feature","id":3691342,"geometry":{"type":"Point","coordinates":[30.6561929820001,-2.20743561599994,0]},"properties":{"OBJECTID":3691342,"province":"Estern Province","district":"Kirehe","sector":"Mushikiri","sector_id":"5509","label":"Mushikiri Sector HQ","longitude":30.65619298200005,"latitude":-2.2074356159999411}},{"type":"Feature","id":3700842,"geometry":{"type":"Point","coordinates":[30.4483596360001,-1.63886869799995,0]},"properties":{"OBJECTID":3700842,"province":"Estern Province","district":"Gatsibo","sector":"Rwimbogo","sector_id":"5314","label":"Rwimbogo Sector HQ","longitude":30.448359636000077,"latitude":-1.6388686979999534}},{"type":"Feature","id":3732322,"geometry":{"type":"Point","coordinates":[30.5580544860001,-2.01083281199993,0]},"properties":{"OBJECTID":3732322,"province":"Estern Province","district":"Kayonza","sector":"Kabarondo","sector_id":"5403","label":"Kabarondo Sector HQ","longitude":30.55805448600006,"latitude":-2.0108328119999328}},{"type":"Feature","id":3741023,"geometry":{"type":"Point","coordinates":[30.658659728,-2.04672356499998,0]},"properties":{"OBJECTID":3741023,"province":"Estern Province","district":"Kayonza","sector":"Kabare","sector_id":"5402","label":"Kabare Sector HQ","longitude":30.658659728000032,"latitude":-2.0467235649999793}},{"type":"Feature","id":3760842,"geometry":{"type":"Point","coordinates":[30.4494866800001,-2.13846912899993,0]},"properties":{"OBJECTID":3760842,"province":"Estern Province","district":"Ngoma","sector":"Karembo","sector_id":"5603","label":"Karembo Sector HQ","longitude":30.449486680000064,"latitude":-2.1384691289999296}},{"type":"Feature","id":3767285,"geometry":{"type":"Point","coordinates":[30.0259733890001,-2.18577740199993,0]},"properties":{"OBJECTID":3767285,"province":"Estern Province","district":"Bugesera","sector":"Musenyi","sector_id":"5706","label":"Musenyi Sector HQ","longitude":30.025973389000058,"latitude":-2.1857774019999283}},{"type":"Feature","id":3802877,"geometry":{"type":"Point","coordinates":[30.7495927530001,-2.28602106599993,0]},"properties":{"OBJECTID":3802877,"province":"Estern Province","district":"Kirehe","sector":"Nyamugari","sector_id":"5511","label":"Nyamugari Sector HQ","longitude":30.749592753000059,"latitude":-2.2860210659999325}},{"type":"Feature","id":3803049,"geometry":{"type":"Point","coordinates":[30.4298979650001,-1.91456848299993,0]},"properties":{"OBJECTID":3803049,"province":"Estern Province","district":"Rwamagana","sector":"Gishali","sector_id":"5103","label":"Gishali Sector HQ","longitude":30.429897965000066,"latitude":-1.9145684829999254}},{"type":"Feature","id":3808326,"geometry":{"type":"Point","coordinates":[30.0970307690001,-2.32668641799995,0]},"properties":{"OBJECTID":3808326,"province":"Estern Province","district":"Bugesera","sector":"Ngeruka","sector_id":"5708","label":"Ngeruka Sector HQ","longitude":30.097030769000071,"latitude":-2.3266864179999516}},{"type":"Feature","id":3818528,"geometry":{"type":"Point","coordinates":[30.093830387,-2.14517365899997,0]},"properties":{"OBJECTID":3818528,"province":"Estern Province","district":"Bugesera","sector":"Nyamata","sector_id":"5710","label":"Nyamata Sector HQ","longitude":30.093830387000025,"latitude":-2.1451736589999655}},{"type":"Feature","id":3825844,"geometry":{"type":"Point","coordinates":[30.397075844,-1.92468748199997,0]},"properties":{"OBJECTID":3825844,"province":"Estern Province","district":"Rwamagana","sector":"Munyiginya","sector_id":"5108","label":"Munyiginya Sector HQ","longitude":30.397075844000028,"latitude":-1.9246874819999675}},{"type":"Feature","id":3835355,"geometry":{"type":"Point","coordinates":[30.2327226250001,-1.38713324799994,0]},"properties":{"OBJECTID":3835355,"province":"Estern Province","district":"Nyagatare","sector":"Gatunda","sector_id":"5201","label":"Gatunda Sector HQ","longitude":30.232722625000065,"latitude":-1.387133247999941}},{"type":"Feature","id":3835374,"geometry":{"type":"Point","coordinates":[30.5064102160001,-1.89931794699993,0]},"properties":{"OBJECTID":3835374,"province":"Estern Province","district":"Kayonza","sector":"Mukarange","sector_id":"5404","label":"Mukarange Sector HQ","longitude":30.506410216000063,"latitude":-1.8993179469999291}},{"type":"Feature","id":3837790,"geometry":{"type":"Point","coordinates":[30.237135875,-1.58391100499995,0]},"properties":{"OBJECTID":3837790,"province":"Estern Province","district":"Gatsibo","sector":"Gatsibo","sector_id":"5302","label":"Gatsibo Sector HQ","longitude":30.237135875000035,"latitude":-1.5839110049999476}},{"type":"Feature","id":3854952,"geometry":{"type":"Point","coordinates":[30.0126196840001,-2.30364831199995,0]},"properties":{"OBJECTID":3854952,"province":"Estern Province","district":"Bugesera","sector":"Nyarugenge","sector_id":"5711","label":"Nyarugenge Sector HQ","longitude":30.012619684000072,"latitude":-2.3036483119999502}},{"type":"Feature","id":3867343,"geometry":{"type":"Point","coordinates":[30.4126369410001,-1.28922272299997,0]},"properties":{"OBJECTID":3867343,"province":"Estern Province","district":"Nyagatare","sector":"Rwimiyaga","sector_id":"5213","label":"Rwimiyaga Sector HQ","longitude":30.412636941000073,"latitude":-1.2892227229999662}},{"type":"Feature","id":3871614,"geometry":{"type":"Point","coordinates":[30.312646628,-1.70193081799994,0]},"properties":{"OBJECTID":3871614,"province":"Estern Province","district":"Gatsibo","sector":"Remera","sector_id":"5312","label":"Remera Sector HQ","longitude":30.312646628000039,"latitude":-1.7019308179999371}},{"type":"Feature","id":3881792,"geometry":{"type":"Point","coordinates":[30.7111063020001,-2.01465003899995,0]},"properties":{"OBJECTID":3881792,"province":"Estern Province","district":"Kayonza","sector":"Ndego","sector_id":"5408","label":"Ndego Sector HQ","longitude":30.711106302000076,"latitude":-2.014650038999946}},{"type":"Feature","id":3902400,"geometry":{"type":"Point","coordinates":[30.385427619,-1.77142149499997,0]},"properties":{"OBJECTID":3902400,"province":"Estern Province","district":"Gatsibo","sector":"Kiziguro","sector_id":"5307","label":"Kiziguro Sector HQ","longitude":30.385427619000041,"latitude":-1.77142149499997}},{"type":"Feature","id":3905179,"geometry":{"type":"Point","coordinates":[30.2534454070001,-2.03593529499994,0]},"properties":{"OBJECTID":3905179,"province":"Estern Province","district":"Rwamagana","sector":"Nyakaliro","sector_id":"5112","label":"Nyakaliro Sector HQ","longitude":30.253445407000072,"latitude":-2.0359352949999447}},{"type":"Feature","id":3906223,"geometry":{"type":"Point","coordinates":[30.5880414910001,-2.27763326299993,0]},"properties":{"OBJECTID":3906223,"province":"Estern Province","district":"Kirehe","sector":"Gatore","sector_id":"5502","label":"Gatore Sector HQ","longitude":30.58804149100007,"latitude":-2.2776332629999274}},{"type":"Feature","id":3909213,"geometry":{"type":"Point","coordinates":[30.13470706,-1.43629561699993,0]},"properties":{"OBJECTID":3909213,"province":"Estern Province","district":"Nyagatare","sector":"Kiyombe","sector_id":"5205","label":"Kiyombe Sector HQ","longitude":30.134707060000039,"latitude":-1.4362956169999279}},{"type":"Feature","id":3953802,"geometry":{"type":"Point","coordinates":[30.3898918630001,-1.13600253599998,0]},"properties":{"OBJECTID":3953802,"province":"Estern Province","district":"Nyagatare","sector":"Musheri","sector_id":"5209","label":"Musheri Sector HQ","longitude":30.389891863000059,"latitude":-1.1360025359999781}},{"type":"Feature","id":3961566,"geometry":{"type":"Point","coordinates":[30.070853991,-2.24830200899993,0]},"properties":{"OBJECTID":3961566,"province":"Estern Province","district":"Bugesera","sector":"Mareba","sector_id":"5704","label":"Mareba Sector HQ","longitude":30.070853991000035,"latitude":-2.2483020089999286}},{"type":"Feature","id":3969282,"geometry":{"type":"Point","coordinates":[30.1543240010001,-1.37494399299993,0]},"properties":{"OBJECTID":3969282,"province":"Estern Province","district":"Nyagatare","sector":"Karama","sector_id":"5202","label":"Karama Sector HQ","longitude":30.154324001000077,"latitude":-1.3749439929999312}},{"type":"Feature","id":3976344,"geometry":{"type":"Point","coordinates":[30.276684233,-1.47384202199993,0]},"properties":{"OBJECTID":3976344,"province":"Estern Province","district":"Nyagatare","sector":"Katabagemu","sector_id":"5204","label":"Katabagemu Sector HQ","longitude":30.276684233000026,"latitude":-1.4738420219999284}},{"type":"Feature","id":3989718,"geometry":{"type":"Point","coordinates":[30.5907190560001,-2.19055711999994,0]},"properties":{"OBJECTID":3989718,"province":"Estern Province","district":"Ngoma","sector":"Rukira","sector_id":"5610","label":"Rukira Sector HQ","longitude":30.590719056000069,"latitude":-2.1905571199999372}},{"type":"Feature","id":4001183,"geometry":{"type":"Point","coordinates":[30.5040402880001,-2.33508596499996,0]},"properties":{"OBJECTID":4001183,"province":"Estern Province","district":"Kirehe","sector":"Gahara","sector_id":"5501","label":"Gahara Sector HQ","longitude":30.504040288000056,"latitude":-2.335085964999962}},{"type":"Feature","id":4010064,"geometry":{"type":"Point","coordinates":[30.3460003100001,-1.81592839499996,0]},"properties":{"OBJECTID":4010064,"province":"Estern Province","district":"Gatsibo","sector":"Murambi","sector_id":"5309","label":"Murambi Sector HQ","longitude":30.346000310000079,"latitude":-1.8159283949999576}},{"type":"Feature","id":4119076,"geometry":{"type":"Point","coordinates":[30.0497721400001,-2.11333479999996,0]},"properties":{"OBJECTID":4119076,"province":"Estern Province","district":"Bugesera","sector":"Ntarama","sector_id":"5709","label":"Ntarama Sector HQ","longitude":30.049772140000073,"latitude":-2.1133347999999614}},{"type":"Feature","id":4152159,"geometry":{"type":"Point","coordinates":[30.0506964370001,-1.93945184399996,0]},"properties":{"OBJECTID":4152159,"province":"City of Kigali","district":"Nyarugenge","sector":"Muhima","sector_id":"1106","label":"Muhima Sector HQ","longitude":30.050696437000056,"latitude":-1.9394518439999615}},{"type":"Feature","id":4170480,"geometry":{"type":"Point","coordinates":[30.084005835,-1.93629234399998,0]},"properties":{"OBJECTID":4170480,"province":"City of Kigali","district":"Gasabo","sector":"Kacyiru","sector_id":"1207","label":"Kacyiru Sector HQ","longitude":30.084005835000028,"latitude":-1.9362923439999804}},{"type":"Feature","id":4175096,"geometry":{"type":"Point","coordinates":[30.1076572700001,-1.96182705399997,0]},"properties":{"OBJECTID":4175096,"province":"City of Kigali","district":"Gasabo","sector":"Remera","sector_id":"1213","label":"Remera Sector HQ","longitude":30.107657270000061,"latitude":-1.9618270539999685}},{"type":"Feature","id":4188030,"geometry":{"type":"Point","coordinates":[30.167530549,-1.81931799099993,0]},"properties":{"OBJECTID":4188030,"province":"City of Kigali","district":"Gasabo","sector":"Rutunga","sector_id":"1215","label":"Rutunga Sector HQ","longitude":30.167530549000048,"latitude":-1.8193179909999344}},{"type":"Feature","id":4189347,"geometry":{"type":"Point","coordinates":[30.177044752,-1.97370449999994,0]},"properties":{"OBJECTID":4189347,"province":"City of Kigali","district":"Kicukiro","sector":"Nyarugunga","sector_id":"1310","label":"Nyarugunga Sector HQ","longitude":30.177044752000029,"latitude":-1.9737044999999398}},{"type":"Feature","id":4197837,"geometry":{"type":"Point","coordinates":[30.1272679950001,-1.94475176099996,0]},"properties":{"OBJECTID":4197837,"province":"City of Kigali","district":"Gasabo","sector":"Kimironko","sector_id":"1209","label":"Kimironko Sector HQ","longitude":30.127267995000068,"latitude":-1.9447517609999636}},{"type":"Feature","id":4215430,"geometry":{"type":"Point","coordinates":[30.218855981,-1.87770028499995,0]},"properties":{"OBJECTID":4215430,"province":"City of Kigali","district":"Gasabo","sector":"Gikomero","sector_id":"1203","label":"Gikomero Sector HQ","longitude":30.218855981000047,"latitude":-1.8777002849999462}},{"type":"Feature","id":4221589,"geometry":{"type":"Point","coordinates":[30.1732537990001,-1.94694241899992,0]},"properties":{"OBJECTID":4221589,"province":"City of Kigali","district":"Gasabo","sector":"Ndera","sector_id":"1211","label":"Ndera Sector HQ","longitude":30.173253799000065,"latitude":-1.9469424189999245}},{"type":"Feature","id":4230965,"geometry":{"type":"Point","coordinates":[30.112882816,-1.85845757799996,0]},"properties":{"OBJECTID":4230965,"province":"City of Kigali","district":"Gasabo","sector":"Nduba","sector_id":"1212","label":"Nduba Sector HQ","longitude":30.112882816000024,"latitude":-1.8584575779999568}},{"type":"Feature","id":4231609,"geometry":{"type":"Point","coordinates":[30.201399667,-1.97626179299994,0]},"properties":{"OBJECTID":4231609,"province":"City of Kigali","district":"Gasabo","sector":"Rusororo","sector_id":"1214","label":"Rusororo Sector HQ","longitude":30.201399667000032,"latitude":-1.9762617929999351}},{"type":"Feature","id":4238443,"geometry":{"type":"Point","coordinates":[30.023620964,-1.90157419499997,0]},"properties":{"OBJECTID":4238443,"province":"City of Kigali","district":"Gasabo","sector":"Jali","sector_id":"1206","label":"Jali Sector HQ","longitude":30.023620964000031,"latitude":-1.9015741949999665}},{"type":"Feature","id":4241987,"geometry":{"type":"Point","coordinates":[30.058443916,-1.95738621399994,0]},"properties":{"OBJECTID":4241987,"province":"City of Kigali","district":"Nyarugenge","sector":"Gitega","sector_id":"1101","label":"Gitega Sector HQ","longitude":30.058443916000044,"latitude":-1.9573862139999392}},{"type":"Feature","id":4242947,"geometry":{"type":"Point","coordinates":[30.097539189,-1.95657418899998,0]},"properties":{"OBJECTID":4242947,"province":"City of Kigali","district":"Gasabo","sector":"Kimihurura","sector_id":"1208","label":"Kimihurura Sector HQ","longitude":30.097539189000031,"latitude":-1.95657418899998}},{"type":"Feature","id":4259297,"geometry":{"type":"Point","coordinates":[30.0469390270001,-1.91022076999997,0]},"properties":{"OBJECTID":4259297,"province":"City of Kigali","district":"Gasabo","sector":"Gatsata","sector_id":"1202","label":"Gatsata Sector HQ","longitude":30.046939027000064,"latitude":-1.9102207699999667}},{"type":"Feature","id":4267002,"geometry":{"type":"Point","coordinates":[30.192851875,-1.99727079699994,0]},"properties":{"OBJECTID":4267002,"province":"City of Kigali","district":"Kicukiro","sector":"Masaka","sector_id":"1308","label":"Masaka Sector HQ","longitude":30.192851875000031,"latitude":-1.9972707969999419}},{"type":"Feature","id":4272145,"geometry":{"type":"Point","coordinates":[30.051672755,-1.95235483099998,0]},"properties":{"OBJECTID":4272145,"province":"City of Kigali","district":"Nyarugenge","sector":"Kimisagara","sector_id":"1104","label":"Kimisagara Sector HQ","longitude":30.051672755000027,"latitude":-1.9523548309999796}},{"type":"Feature","id":4284145,"geometry":{"type":"Point","coordinates":[30.1512396050001,-1.88266826099994,0]},"properties":{"OBJECTID":4284145,"province":"City of Kigali","district":"Gasabo","sector":"Bumbogo","sector_id":"1201","label":"Bumbogo Sector HQ","longitude":30.151239605000058,"latitude":-1.8826682609999352}},{"type":"Feature","id":4309206,"geometry":{"type":"Point","coordinates":[30.076139384,-1.88124410399996,0]},"properties":{"OBJECTID":4309206,"province":"City of Kigali","district":"Gasabo","sector":"Jabana","sector_id":"1205","label":"Jabana Sector HQ","longitude":30.076139384000044,"latitude":-1.8812441039999612}},{"type":"Feature","id":4313751,"geometry":{"type":"Point","coordinates":[30.0956690720001,-1.97743157999997,0]},"properties":{"OBJECTID":4313751,"province":"City of Kigali","district":"Kicukiro","sector":"Gatenga","sector_id":"1302","label":"Gatenga Sector HQ","longitude":30.095669072000078,"latitude":-1.9774315799999727}},{"type":"Feature","id":4314102,"geometry":{"type":"Point","coordinates":[30.1054852120001,-1.98541590999997,0]},"properties":{"OBJECTID":4314102,"province":"City of Kigali","district":"Kicukiro","sector":"Kagarama","sector_id":"1304","label":"Kagarama Sector HQ","longitude":30.105485212000076,"latitude":-1.985415909999972}},{"type":"Feature","id":4338616,"geometry":{"type":"Point","coordinates":[30.048622145,-1.97348818499995,0]},"properties":{"OBJECTID":4338616,"province":"City of Kigali","district":"Nyarugenge","sector":"Nyakabanda","sector_id":"1107","label":"Nyakabanda Sector HQ","longitude":30.048622145000024,"latitude":-1.973488184999951}},{"type":"Feature","id":4338758,"geometry":{"type":"Point","coordinates":[30.0549684330001,-1.97142711699996,0]},"properties":{"OBJECTID":4338758,"province":"City of Kigali","district":"Nyarugenge","sector":"Rwezamenyo","sector_id":"1110","label":"Rwezamenyo Sector HQ","longitude":30.054968433000056,"latitude":-1.971427116999962}},{"type":"Feature","id":4354672,"geometry":{"type":"Point","coordinates":[30.063713863,-1.99223206499994,0]},"properties":{"OBJECTID":4354672,"province":"City of Kigali","district":"Kicukiro","sector":"Kigarama","sector_id":"1307","label":"Kigarama Sector HQ","longitude":30.063713863000032,"latitude":-1.9922320649999392}},{"type":"Feature","id":4367548,"geometry":{"type":"Point","coordinates":[30.0578808430001,-1.95025411999995,0]},"properties":{"OBJECTID":4367548,"province":"City of Kigali","district":"Nyarugenge","sector":"Nyarugenge","sector_id":"1109","label":"Nyarugenge Sector HQ","longitude":30.057880843000078,"latitude":-1.9502541199999541}},{"type":"Feature","id":4371793,"geometry":{"type":"Point","coordinates":[30.0163381740001,-1.98269809399994,0]},"properties":{"OBJECTID":4371793,"province":"City of Kigali","district":"Nyarugenge","sector":"Kigali","sector_id":"1103","label":"Kigali Sector HQ","longitude":30.016338174000055,"latitude":-1.982698093999943}},{"type":"Feature","id":4372438,"geometry":{"type":"Point","coordinates":[30.0465320530001,-1.99594133899996,0]},"properties":{"OBJECTID":4372438,"province":"City of Kigali","district":"Nyarugenge","sector":"Nyamirambo","sector_id":"1108","label":"Nyamirambo Sector HQ","longitude":30.046532053000078,"latitude":-1.9959413389999554}},{"type":"Feature","id":4387330,"geometry":{"type":"Point","coordinates":[30.063973682,-1.91449706599997,0]},"properties":{"OBJECTID":4387330,"province":"City of Kigali","district":"Gasabo","sector":"Gisozi","sector_id":"1204","label":"Gisozi Sector HQ","longitude":30.063973682000039,"latitude":-1.9144970659999672}},{"type":"Feature","id":4419169,"geometry":{"type":"Point","coordinates":[30.076847425,-1.97778797699993,0]},"properties":{"OBJECTID":4419169,"province":"City of Kigali","district":"Kicukiro","sector":"Gikondo","sector_id":"1303","label":"Gikondo Sector HQ","longitude":30.076847425000039,"latitude":-1.9777879769999345}},{"type":"Feature","id":4430208,"geometry":{"type":"Point","coordinates":[30.1050029210001,-2.01898190099996,0]},"properties":{"OBJECTID":4430208,"province":"City of Kigali","district":"Kicukiro","sector":"Gahanga","sector_id":"1301","label":"Gahanga Sector HQ","longitude":30.10500292100005,"latitude":-2.018981900999961}},{"type":"Feature","id":4464361,"geometry":{"type":"Point","coordinates":[30.113019492,-1.97959758099995,0]},"properties":{"OBJECTID":4464361,"province":"City of Kigali","district":"Kicukiro","sector":"Niboye","sector_id":"1309","label":"Niboye Sector HQ","longitude":30.113019492000035,"latitude":-1.9795975809999504}},{"type":"Feature","id":4484427,"geometry":{"type":"Point","coordinates":[30.085272896,-1.91282377899995,0]},"properties":{"OBJECTID":4484427,"province":"City of Kigali","district":"Gasabo","sector":"Kinyinya","sector_id":"1210","label":"Kinyinya Sector HQ","longitude":30.085272896000049,"latitude":-1.9128237789999503}},{"type":"Feature","id":4494330,"geometry":{"type":"Point","coordinates":[30.134180056,-1.97904346699994,0]},"properties":{"OBJECTID":4494330,"province":"City of Kigali","district":"Kicukiro","sector":"Kanombe","sector_id":"1305","label":"Kanombe Sector HQ","longitude":30.134180056000048,"latitude":-1.97904346699994}},{"type":"Feature","id":4521157,"geometry":{"type":"Point","coordinates":[30.024380696,-2.02520824799996,0]},"properties":{"OBJECTID":4521157,"province":"City of Kigali","district":"Nyarugenge","sector":"Mageregere","sector_id":"1105","label":"Mageregere Sector HQ","longitude":30.024380696000037,"latitude":-2.0252082479999558}},{"type":"Feature","id":4523032,"geometry":{"type":"Point","coordinates":[30.092634957,-1.97195405599996,0]},"properties":{"OBJECTID":4523032,"province":"City of Kigali","district":"Kicukiro","sector":"Kicukiro","sector_id":"1306","label":"Kicukiro Sector HQ","longitude":30.09263495700003,"latitude":-1.9719540559999587}},{"type":"Feature","id":4539909,"geometry":{"type":"Point","coordinates":[30.0048742290001,-1.91680492799998,0]},"properties":{"OBJECTID":4539909,"province":"City of Kigali","district":"Nyarugenge","sector":"Kanyinya","sector_id":"1102","label":"Kanyinya Sector HQ","longitude":30.004874229000052,"latitude":-1.9168049279999764}}]}